stop_name,parent_station,stop_id,stop_lat,stop_lon,location_type,platform_code
's-Hertogenbosch,,590948,51.69054,5.293723,1,
's-Hertogenbosch,590948,48038,51.69054,5.293723,,
Aachen Hbf,609021,330461,50.7678,6.091499,,
Aachen Schanz,644770,220611,50.769863,6.07384,,
Aachen Süd(Gr),,357472,50.731915,6.04541,1,
Aachen Süd(Gr),357472,60307,50.731915,6.04541,,
Aachen West,,179693,50.78036,6.070715,1,
Aachen West,179693,120447,50.78036,6.070715,,
"Aachen, Hbf",,609021,50.767723,6.092051,1,
"Aachen, Schanz (Jakobstraße)",,644770,50.769104,6.074103,1,
Aachen-Rothe Erde,,601023,50.770203,6.116475,1,
Aachen-Rothe Erde,601023,265428,50.770203,6.116475,,
Aalen Hbf,401695,307171,48.841015,10.096271,,
"Aalen, Hauptbahnhof",,401695,48.841602,10.096031,1,
Abenden,,375712,50.671085,6.476459,1,
Abenden,375712,513941,50.671085,6.476459,,
Abensberg,,610550,48.819454,11.846623,1,
Abensberg,610550,170723,48.819454,11.84662,,
Achern,324817,322078,48.63399,8.065324,,
Achern Bahnhof,,324817,48.6337,8.065003,1,
Achern Stadt,,578744,48.625423,8.068228,1,
Achern Stadt,578744,478006,48.625736,8.067706,,
Achim,296609,585169,53.015945,9.03038,,
Achim(b Bremen) (Zug),,296609,53.015995,9.030313,1,
Achkarren,494833,630297,48.06009,7.60787,,
"Achkarren, Bahnhof",,494833,48.059715,7.60803,1,
Achmer,,54283,52.390488,7.941875,1,
Achmer,54283,127803,52.39058,7.941991,,
Achterwehr,,539188,54.314915,9.964024,1,
Achterwehr,539188,333576,54.314915,9.964024,,
Adelebsen,,317870,51.577675,9.759952,1,
Adelebsen,317870,219926,51.57769,9.760044,,
Adelschlag,,449038,48.84076,11.211442,1,
Adelschlag,449038,338432,48.84076,11.211443,,
Adelsdorf(Mittelfr),,431757,49.474945,10.687041,1,
Adelsdorf(Mittelfr),431757,613782,49.474945,10.687041,,
Adelsheim Nord,339664,404848,49.42149,9.392754,,
Adelsheim Ost,473352,387036,49.403122,9.395127,,
"Adelsheim, Nordbahnhof",,339664,49.42145,9.392659,1,
"Adelsheim, Ost",,473352,49.4029,9.394968,1,
Adorf(Vogtl),379090,192845,50.324394,12.260678,,
"Adorf, Bahnhof",,379090,50.32397,12.261554,1,
"Adorf, Haltepunkt",,541886,50.763832,12.874753,1,
"Adorf, Haltepunkt",541886,118467,50.76388,12.873774,,
Affaltrach,,655327,49.137825,9.37913,1,
Affaltrach,655327,467028,49.137833,9.379012,,
Agatharied,,545865,47.766384,11.82544,1,
Agatharied,545865,640414,47.765606,11.824472,,
Agathenburg,,452352,53.564003,9.531541,1,
Agathenburg,452352,350891,53.56411,9.531244,,
Aglasterhausen,16370,253468,49.350098,8.990838,,
"Aglasterhausen, Bahnhof",,16370,49.35007,8.990771,1,
Aha,571295,570757,47.833225,8.134349,,
Aha (Schluchsee) Bahnhof,,571295,47.83329,8.134353,1,
Ahaus,295274,336553,52.08168,7.016453,,
"Ahaus, Bahnhof",,295274,52.08168,7.016453,1,
Ahlbeck Grenze,,511944,53.92284,14.215588,1,
Ahlbeck Grenze,511944,630541,53.921967,14.215549,,
Ahlbeck Ostseetherme,,674327,53.9426,14.179547,1,
Ahlbeck Ostseetherme,674327,548531,53.942623,14.179332,,
Ahlbeck Seebad,,528012,53.935627,14.188135,1,
Ahlen(Westf),44345,81229,51.761063,7.895488,,
"Ahlen, Bahnhof",,44345,51.761063,7.895491,1,
Ahlhorn,,114913,52.89937,8.209436,1,
Ahlhorn,114913,164919,52.899364,8.209509,,
Ahlhorn,114913,647419,52.899372,8.209362,,
Ahlten,107562,330085,52.37606,9.904613,,
Ahlten Bahnhof,,107562,52.376255,9.904213,1,
Ahnatal-Casselbreite Gl.1 Ri. Wolfhagen,673668,399743,51.36286,9.434109,,1
Ahnatal-Heckershausen Bahnhof,,630877,51.362984,9.422983,1,
Ahnatal-Heckershausen Casselbreite,,673668,51.365192,9.434839,1,
Ahnatal-Heckershausen Gl.1 Ri. Kassel,630877,96434,51.36297,9.422994,,1
Ahnatal-Heckershausen Gl.2 Ri. Wolfhagen,630877,294899,51.362988,9.422123,,2
Ahnatal-Weimar,,568177,51.36363,9.391588,1,
Ahnatal-Weimar,568177,116605,51.36363,9.391588,,
Ahnatal-Weimar Bahnhof,,135150,51.36363,9.392112,1,
Ahnatal-Weimar Gl.1 Ri.Wolfhagen,135150,328544,51.363407,9.391969,,1
Ahrbrück,,41779,50.489677,6.972391,1,
Ahrbrück,41779,378535,50.489677,6.972391,,
Ahrensburg,,252830,53.669125,10.23625,1,
Ahrensburg,252830,357708,53.66917,10.236203,,
"Ahrensburg, Gartenholz",,262643,53.688686,10.251822,1,
Ahrensburg-Gartenholz,262643,345767,53.68848,10.251786,,
Ahrensfelde,461438,665296,52.571392,13.565467,,44
Ahrensfelde Friedhof,384497,610361,52.580524,13.573094,,1
Ahrensfelde Nord,327335,111582,52.590714,13.581945,,1
"Ahrensfelde, Friedhof Bhf",,384497,52.58049,13.572999,1,
"Ahrensfelde, Nord Bhf",,327335,52.590733,13.581965,1,
Ahrweiler,309865,630083,50.54641,7.107258,,
Ahrweiler Markt,165768,2626,50.544228,7.094229,,
Aich (Niederbay),,135046,48.417313,12.398161,1,
Aich(Niederbay),135046,538719,48.417316,12.398163,,
Aichach,,642108,48.461117,11.122724,1,
Aichach,642108,424482,48.461117,11.122721,,
Aichstetten,436760,367508,47.887882,10.07494,,
Aichstetten Bahnhof,,436760,47.887985,10.074399,1,
Ainring,,345657,47.815033,12.964504,1,
Ainring,345657,173849,47.815033,12.964501,,
"Aitrach-Marstetten, Bahnhof",,150479,47.943577,10.080373,1,
Aix-en-Provence TGV,,559094,43.45517,5.317224,1,
Aix-en-Provence TGV,559094,113289,43.45517,5.317224,,
Albbruck,133288,482565,47.592236,8.131774,,
Albbruck Bahnhof,,133288,47.592274,8.131828,1,
Albersdorf,172588,579033,54.14632,9.292151,,
Albersdorf(Holst),,172588,54.14632,9.292151,1,
Albersweiler(Pfalz),556081,119085,49.218586,8.024059,,
"Albersweiler, Bahnhof",,556081,49.2186,8.023842,1,
"Albgaubad, Ettlingen",243433,433277,48.936832,8.41495,,
"Albgaubad, Ettlingen",243433,546162,48.936893,8.415184,,
Albig,625410,373778,49.771374,8.116579,,
"Albig, Bahnhof",,625410,49.771866,8.116512,1,
Albrechtshaus,,180217,51.64227,10.92926,1,
Albrechtshaus,180217,197624,51.642174,10.929267,,
Albshausen,26605,177916,50.545715,8.434869,,
Albsheim(Eis),606165,419015,49.58075,8.179166,,
"Albsheim, Bahnhof",,606165,49.580555,8.179277,1,
Albstadt-Ebingen,662737,288540,48.21029,9.026962,,
Albstadt-Ebingen West,156327,419664,48.21139,8.99698,,
Albstadt-Laufen Ort,530685,193422,48.22286,8.917316,,
Albstadt-Lautlingen,,37846,48.21361,8.954631,1,
Albstadt-Lautlingen,37846,578880,48.21364,8.95462,,
Aldekerk,121788,619817,51.43576,6.412542,,
Aldingen Bahnhof,,8866,48.096,8.712787,1,
Aldingen(b Spaichingen),8866,552097,48.095844,8.713033,,
Aletshausen,,449717,48.20131,10.383635,1,
Aletshausen,449717,446564,48.201313,10.383631,,
Alexisbad,,680020,51.648037,11.115112,1,
Alexisbad,680020,278698,51.648132,11.115311,,
Alfeld (Leine) Bahnhof,,172814,51.98114,9.81837,1,
Alfeld(Leine),172814,671425,51.98142,9.817779,,
Alfons-Auer-Straße,,631124,49.006016,12.108877,1,
Alfter Impekoven (S),,479827,50.71101,7.019831,1,
Alfter Witterschlick Bf,,409465,50.689697,7.026074,1,
Alfter-Impekoven,479827,296738,50.711018,7.019831,,
Alfter-Witterschlick,409465,187924,50.689697,7.026083,,
Algermissen,629788,469238,52.251965,9.96666,,
Algermissen Bahnhof,,629788,52.252445,9.96626,1,
Aligse,163116,38105,52.40346,9.979349,,
Aligse Bahnhof,,163116,52.40282,9.978899,1,
Allach,,290652,48.189938,11.467875,1,
Allendorf(Dillkr),371492,379617,50.743813,8.185486,,
Allensbach,279041,36534,47.714462,9.068852,,
Allensbach Bahnhof,,279041,47.71459,9.068493,1,
Allerheiligen,,73301,51.142532,6.756777,1,
Allerheiligen,73301,656063,51.142487,6.756777,,
Allerheiligenhöfe,,359686,47.26903,11.352969,1,
Allerheiligenhöfe,359686,269873,47.26903,11.352969,,
Allersberg (Rothsee),,471363,49.26213,11.212574,1,
Allersberg(Rothsee),471363,315941,49.26213,11.212573,,
Allmendingen,70992,313009,48.327736,9.722427,,
Allmendingen Bahnhof,,70992,48.327637,9.722745,1,
Alpen,664272,29872,51.583393,6.518041,,
Alpen Bahnhof,,664272,51.583714,6.517664,1,
Alpirsbach,410792,296954,48.343807,8.398251,,
Alpirsbach Bahnhof,,410792,48.343956,8.398278,1,
Alsbach-Hähnlein-Alsbach Hähnlein-Alsbach Bahnhof,,517933,49.73978,8.606479,1,
Alsdorf (Sieg) Alsdorf Bf,,565504,50.780884,7.890478,1,
Alsdorf (Sieg) Grünebacherhütte Bf,,210306,50.78165,7.891538,1,
Alsdorf Poststraße,,69850,50.855675,6.19705,1,
Alsdorf Poststraße,69850,678623,50.855675,6.19705,,
Alsdorf(Westerw),565504,425411,50.78089,7.890486,,
"Alsdorf, Annapark Bahnhof (Bus)",,10294,50.87082,6.157457,1,
Alsdorf-Annapark,10294,503269,50.87082,6.157457,,
Alsdorf-Kellersberg,,202521,50.867527,6.167354,1,
Alsdorf-Kellersberg,202521,144250,50.867527,6.167354,,
Alsdorf-Mariadorf,,156395,50.861977,6.188454,1,
Alsdorf-Mariadorf,156395,599559,50.861977,6.188454,,
Alsenz,608220,220689,49.727493,7.817189,,
"Alsenz, Bahnhof",,608220,49.727745,7.817202,1,
Alsfeld Bahnhof,,113649,50.750732,9.264839,1,
Alsfeld(Oberhess),113649,70541,50.75096,9.264297,,
Alsheim,80899,112918,49.76553,8.342462,,
"Alsheim, Bahnhof",,80899,49.765453,8.342573,1,
Alt Hüttendorf,276881,414458,52.957436,13.783584,,1
Alt Rosenthal,245001,48345,52.550404,14.278627,,
"Alt Rosenthal, Bahnhof",,245001,52.550312,14.278221,1,
Altach,,670315,47.352074,9.661128,1,
Altach,670315,468657,47.352074,9.661128,,
Altbach,,85201,48.720314,9.382436,1,
Altbach,85201,109488,48.720394,9.382384,,
Altdorf (b Nürnberg),,228564,49.390003,11.353528,1,
Altdorf West,,559160,49.391144,11.341464,1,
Altdorf West,559160,377753,49.391148,11.341467,,
Altdorf(b Nürnberg),228564,616603,49.389835,11.353673,,
Altdöbern,241290,348532,51.65251,14.009376,,1
"Altdöbern, Bahnhof",,241290,51.65256,14.009347,1,
Alte Veste,,70912,49.454323,10.972364,1,
Alte Veste,70912,542771,49.454323,10.972363,,
Altefähr,478070,237463,54.322926,13.14101,,
Altefähr Bahnhof,,478070,54.322987,13.141077,1,
Altena(Westf),625442,132603,51.301983,7.668808,,
"Altena, Bahnhof",,625442,51.301983,7.66881,1,
Altenahr,470509,469993,50.51565,6.989707,,
Altenahr Bf,,470509,50.515663,6.989585,1,
Altenahr Kreuzberg Bf,,538244,50.506454,6.978526,1,
Altenau (Bay),,406596,47.64837,11.017379,1,
Altenau(Bay),406596,289104,47.648365,11.017375,,
Altenbach,,474586,51.35587,12.682324,1,
Altenbach,474586,354698,51.35587,12.682324,,
Altenbamberg,,548325,49.786858,7.830745,1,
Altenbamberg,548325,471868,49.786858,7.830745,,
Altenbeken,,6520,51.766434,8.943322,1,
Altenbeken,6520,178110,51.766434,8.943319,,
Altenberg Bahnhof,,461920,50.766075,13.75362,1,
Altenberge,26800,2700,52.052258,7.481303,,
"Altenberge, Bahnhof",,26800,52.052258,7.481304,1,
Altenburg,,410723,50.997196,12.443905,1,
Altenburg,410723,118967,50.997196,12.443905,,
Altenerding,,448475,48.293304,11.901294,1,
Altenerding,448475,281061,48.29357,11.901744,,
Altenfeld(Rhön),667229,33758,50.450897,9.849726,,
Altenglan,99945,537456,49.54864,7.461841,,
"Altenglan, Bahnhof",,99945,49.548477,7.461928,1,
Altengörs,,418865,53.899284,10.354996,1,
Altengörs,418865,454225,53.898697,10.355555,,
Altenhasungen,,269105,51.34354,9.225737,1,
Altenhasungen,269105,678342,51.34354,9.225737,,
Altenkirchen (Westerw) Bahnhof,,586626,50.68441,7.638249,1,
Altenkirchen(Westerwald),586626,366126,50.684418,7.638257,,
Altenmarkt (Alz),,27049,47.999817,12.536026,1,
Altenmarkt(Alz),27049,240590,47.999817,12.536027,,
Altenseelbach,592202,594330,50.783836,7.992398,,
Altenseelbach Bf,,592202,50.78384,7.992401,1,
Altenstadt (Waldnaab),,620492,49.715675,12.164869,1,
Altenstadt Bahnhof,,426195,48.16115,10.110107,1,
Altenstadt Bahnhof,,522406,50.28347,8.943443,1,
Altenstadt(Hess),522406,196428,50.283314,8.943982,,
Altenstadt(Iller),426195,438831,48.16119,10.109983,,
Altenstadt(Waldnaab),620492,213387,49.71568,12.16487,,
Altenstadt-Höchst,242173,21217,50.269768,8.923418,,
Altenstadt-Höchst Bahnhof,,242173,50.269745,8.923412,1,
Altenstadt-Lindheim,486599,575374,50.291237,8.978405,,
Altentreptow,178280,176852,53.692234,13.242713,,
Altentreptow Bahnhof,,178280,53.69209,13.243108,1,
Altenwillershagen,603400,157763,54.259407,12.572818,,
Altenwillershagen Bahnhof,,603400,54.259106,12.57265,1,
Altersbach,,550085,50.700726,10.544473,1,
Altersbach,550085,677787,50.70064,10.544522,,
Altes Lager,545802,424915,52.015865,12.992407,,1
"Altes Lager, Bahnhof",,545802,52.015965,12.992288,1,
Altglashütten Falkau Bahnhof,,153020,47.859436,8.113961,1,
Altglashütten-Falkau,153020,620784,47.85939,8.114113,,
Althegnenberg,,593695,48.236603,11.062366,1,
Althegnenberg,593695,585155,48.236374,11.063003,,
Altheim(Hess),390646,146266,49.923332,8.890906,,
Althengstett,,265241,48.72688,8.79743,1,
Althengstett,265241,54558,48.72688,8.79743,,
Althof,301159,7067,54.090443,11.922341,,
Althof Bahnhof,,301159,54.09052,11.921776,1,
"Althüttendorf, Bahnhof",,276881,52.957417,13.783596,1,
Altingen Bahnhof,,507646,48.561874,8.908665,1,
Altingen(Württ),507646,654169,48.561928,8.908852,,
Altmarkt/Regierungspräsidium  Ri. Am Stern,426996,279084,51.316444,9.504447,,B
Altmarkt/Regierungspräsidium  von Am Stern,426996,550689,51.3161,9.504862,,A
Altmittweida,17465,295910,50.968704,12.959645,,
"Altmittweida, Bahnhof",,17465,50.967575,12.959698,1,
"Altmittweida, Bahnhof",17465,448927,50.968494,12.959626,,
"Altmittweida, Bahnhof",17465,566318,50.968784,12.959752,,
Altmorschen,,202379,51.067276,9.610756,1,
Altmorschen,202379,495800,51.067276,9.610756,,
Altnau,,324739,47.62137,9.265918,1,
Altnau,324739,106739,47.62137,9.265918,,
Altomünster,,432160,48.38569,11.254193,1,
Altomünster,432160,99108,48.38492,11.255133,,
Altranft,360962,133648,52.763367,14.082107,,
"Altranft, Bahnhof",,360962,52.763695,14.082898,1,
Altshausen,258100,246770,47.93071,9.551478,,
Altshausen Bahnhof,,258100,47.93062,9.550942,1,
Altstädten (Allgäu),,204969,47.488552,10.280904,1,
Altstädten(Allgäu),204969,200844,47.48855,10.280907,,
Alttann,110699,332325,47.841213,9.793037,,
Altötting,,391853,48.221245,12.674788,1,
Altötting,391853,78317,48.22124,12.67479,,
Alveslohe,,478757,53.791447,9.916588,1,
Alveslohe,478757,398100,53.791447,9.916375,,
Alzenau (Ufr),,651374,50.088715,9.0656,1,
Alzenau Burg,,438045,50.087925,9.074341,1,
Alzenau Burg,438045,343717,50.08793,9.07434,,
Alzenau Nord,,493731,50.089443,9.051389,1,
Alzenau Nord,493731,325534,50.089443,9.051385,,
Alzenau(Unterfr),651374,431585,50.088715,9.065603,,
Alzey,455543,309722,49.7502,8.109749,,
Alzey Süd,496725,455293,49.738132,8.118732,,
Alzey West,472287,302043,49.74098,8.107255,,
"Alzey, Bahnhof",,455543,49.75014,8.109532,1,
"Alzey, Südbahnhof",,496725,49.738213,8.118327,1,
"Alzey, Westbahnhof",,472287,49.74089,8.107376,1,
Am Stern  von Altmarkt,405906,272472,51.317993,9.500694,,B
Am Stern  von Holländ. Platz,405906,533575,51.318375,9.500412,,C
Am Stern  von Königsplatz,405906,486504,51.31765,9.500053,,A
Am Stern  von Lutherplatz,405906,136414,51.318153,9.499707,,D
Am Weinberg  Ri. Heinrich-Heine-Straße,180333,254344,51.307487,9.488085,,A
Am Weinberg  Ri. Rathaus,180333,545134,51.30761,9.488417,,B
Amberg,,102157,49.447613,11.8629,1,
Amberg,102157,662761,49.447617,11.862902,,
Amersfoort Centraal,,370896,52.153465,5.373909,1,
Amersfoort Centraal,370896,498027,52.153465,5.373909,,
Ammern,,450965,51.23334,10.458092,1,
Ammern,450965,348696,51.233345,10.458086,,
Amorbach,,6151,49.645607,9.223147,1,
Amorbach,6151,76292,49.64561,9.223147,,
Ampfing,,654281,48.25395,12.410917,1,
Ampfing,654281,600764,48.25395,12.410919,,
Amriswil,,291917,47.55045,9.302227,1,
Amriswil,291917,232111,47.55045,9.302227,,
Amsdorf,,87339,51.463562,11.71979,1,
Amsdorf,87339,85365,51.463562,11.71979,,
Amsterdam Centraal,,497359,52.37919,4.899431,1,
Amsterdam Centraal,497359,351656,52.37919,4.899431,,
Amstetten Bahnhof,,13393,48.57834,9.872988,1,
Amstetten NÖ,,222860,48.121605,14.878112,1,
Amstetten NÖ,222860,107424,48.121605,14.878112,,
Amstetten(Württ),13393,479848,48.578327,9.872965,,
Amtshainersdorf,508828,389250,50.966324,14.232364,,
Andernach,232163,632291,50.434544,7.404839,,
Andernach Bahnhof,,232163,50.434544,7.40484,1,
Andernach Miesenheim Bf,,154124,50.40404,7.407598,1,
Andernach Namedy Bf,,385714,50.45714,7.361766,1,
Andorf,,69177,48.369846,13.565795,1,
Andorf,69177,90100,48.369846,13.565795,,
Angermund,537607,493264,51.33075,6.781857,,
Angermünde,268803,101006,53.01574,13.995672,,5
Angermünde,268803,142067,53.01584,13.996184,,2
Angermünde,268803,26852,53.015854,13.996267,,1
Angermünde,268803,543551,53.015793,13.995908,,3
"Angermünde, Bahnhof",,268803,53.015823,13.995871,1,
Angern-Rogätz,,460107,52.338463,11.759535,1,
Angern-Rogätz,460107,426225,52.338463,11.759535,,
Angersbach,420881,381199,50.630974,9.446944,,
Angersdorf,,486022,51.460407,11.903139,1,
Angersdorf,486022,253492,51.460407,11.903139,,
Angleur,,87939,50.612885,5.599529,1,
Angleur,87939,542636,50.612885,5.599529,,
Anklam,,86032,53.855984,13.701563,1,
Anklam,86032,245304,53.856102,13.701827,,
Annaberg-Buchholz Mitte,169750,349268,50.56679,12.999078,,
Annaberg-Buchholz Süd,473117,307899,50.555885,12.997404,,
Annaberg-Buchholz unterer Bf,133761,502050,50.57861,12.998313,,
"Annaberg-Buchholz, Mitte",,169750,50.56681,12.999053,1,
"Annaberg-Buchholz, Süd",,473117,50.555847,12.997391,1,
"Annaberg-Buchholz, Unterer Bahnhof",,133761,50.578487,12.999071,1,
Annaburg,,482422,51.72868,13.032757,1,
Annaburg,482422,531228,51.72868,13.032757,,
Annweiler am Trifels,374271,34675,49.205387,7.966149,,
"Annweiler, Bahnhof",,374271,49.205555,7.966628,1,
Annweiler-Sarnstall,625709,545925,49.208725,7.937192,,
"Annweiler-Sarnstall, Bahnhof",,625709,49.208935,7.937074,1,
Anrath,,530499,51.285538,6.45023,1,
Anrath,530499,494500,51.285538,6.45023,,
Ansbach,,144006,49.29803,10.578246,1,
Ansbach,144006,12550,49.29803,10.578239,,
Antoninov,,131060,50.77161,15.249621,1,
Antoninov,131060,670105,50.771576,15.249396,,
Antonsthal,410383,373716,50.49994,12.755245,,
"Antonsthal, Bahnhof",,410383,50.499855,12.754981,1,
Anwanden,,230887,49.411694,10.930395,1,
Anwanden,230887,121314,49.411694,10.930396,,
Anzefahr,519389,302930,50.845383,8.860173,,
Anzenkirchen,,272203,48.43474,13.021996,1,
Anzenkirchen,272203,142386,48.43474,13.021996,,
Apach(Moselle),,607974,49.458786,6.371969,1,
Apach(Moselle),607974,621582,49.458786,6.371969,,
Apach(fr),,518819,49.46902,6.369699,1,
Apach(fr),518819,468078,49.46902,6.369699,,
Apensen,,309511,53.441605,9.611844,1,
Apensen,309511,165212,53.44167,9.612345,,
Apolda,,427079,51.03094,11.526136,1,
Apolda,427079,673284,51.03094,11.526136,,
"Appelhülsen, Bahnhof",,317743,51.89214,7.426337,1,
Appenweier,584321,419256,48.541462,7.97319,,
Appenweier Bahnhof,,584321,48.541897,7.973482,1,
Arbon,,296252,47.51059,9.433359,1,
Arbon,296252,8989,47.51059,9.433359,,
Arbon Seemoosriet,,638956,47.521194,9.42502,1,
Arbon Seemoosriet,638956,82088,47.521194,9.42502,,
Arensdorf(Köthen),,222403,51.70951,12.007416,1,
Arensdorf(Köthen),222403,301032,51.70951,12.007416,,
Arenshausen,,146474,51.375164,9.968646,1,
Arenshausen,146474,604077,51.375053,9.968559,,
Arfurt(Lahn),257962,500374,50.406403,8.211079,,
Armsheim,336749,109106,49.808372,8.074113,,
"Armsheim, Bahnhof",,336749,49.808254,8.074237,1,
Arnbach,,434999,48.341473,11.344662,1,
Arnbach,434999,592277,48.34132,11.344044,,
Arnhem Centraal,,175408,51.98478,5.901003,1,
Arnhem Centraal,175408,299850,51.98478,5.901003,,
Arnsberg(Westf),88741,146981,51.405663,8.067965,,
"Arnsberg, Bahnhof",,88741,51.405663,8.067967,1,
Arnsberg-Neheim-Hüsten,669227,301127,51.438004,7.970066,,
Arnsberg-Oeventrop,593589,527542,51.39202,8.132081,,
Arnschwang,,348014,49.27461,12.811602,1,
Arnschwang,348014,242773,49.27461,12.8116,,
Arnsdorf Bahnhof,,313127,51.093277,13.982601,1,
Arnsdorf(Dresden),313127,533659,51.092808,13.982212,,
Arnstadt Hbf,504644,8865,50.841637,10.948149,,
Arnstadt Süd,,181634,50.831497,10.95503,1,
Arnstadt Süd,181634,504880,50.831085,10.954958,,
"Arnstadt, Hauptbahnhof",,504644,50.841362,10.948368,1,
Arrach,,283533,49.195366,13.002799,1,
Arrach,283533,59038,49.195366,13.002804,,
Arsbeck,,233668,51.151978,6.207082,1,
Arsbeck,233668,32453,51.151978,6.207082,,
Artern,,504735,51.36298,11.310239,1,
Artern,504735,467017,51.36324,11.310757,,
Arth-Goldau,,515504,47.049046,8.549446,1,
Arth-Goldau,515504,103370,47.049046,8.549446,,
Arzberg (Oberfr),,106304,50.054634,12.197693,1,
Arzberg(Oberfr),106304,556467,50.054634,12.197692,,
As mesto,,155474,50.218826,12.183322,1,
As mesto,155474,541278,50.218826,12.183322,,
As(CZ),,385917,50.209435,12.199936,1,
As(CZ),385917,467569,50.209435,12.199936,,
Aschaffenburg Hbf,,669387,49.980556,9.1437,1,
Aschaffenburg Hbf,669387,540276,49.980556,9.143697,,
Aschaffenburg Süd,,66942,49.968456,9.152584,1,
Aschaffenburg Süd,66942,174494,49.968464,9.152586,,
"Aschaffenburg, Hochschule",,81394,49.971382,9.159833,1,
"Aschaffenburg, Hochschule",81394,612007,49.971382,9.159833,,
Aschau im Chiemgau,,613697,47.778954,12.324571,1,
Aschau(Chiemgau),613697,417890,47.779106,12.325564,,
Ascheberg(Holst),,653431,54.14848,10.339742,1,
Ascheberg(Holst),653431,132306,54.148495,10.340002,,
Ascheberg(Holst),653431,548252,54.14846,10.339481,,
Ascheberg(Westf),299809,406303,51.78299,7.600749,,
"Ascheberg, Bahnhof",,299809,51.78299,7.600744,1,
Aschendorf,573735,251674,53.052177,7.337153,,
"Aschendorf, Bahnhof/Große Str.",,573735,53.052273,7.336721,1,
Aschersleben,,14451,51.757122,11.465689,1,
Aschersleben,14451,431637,51.757122,11.465689,,
Ashausen,,615734,53.36862,10.145868,1,
Ashausen,615734,136033,53.368694,10.14557,,
Asperg,,230011,48.907253,9.147976,1,
Asperg,230011,502356,48.90736,9.147797,,
Asselheim,548057,514142,49.57622,8.161602,,
"Asselheim, Bahnhof",,548057,49.576416,8.162596,1,
Assenheim(Oberhess),250641,447507,50.30494,8.812462,,
Assmannshausen,43665,211282,49.985325,7.867355,,
Attnang-Puchheim,,351616,48.012802,13.720719,1,
Attnang-Puchheim,351616,510688,48.012802,13.720719,,
Au im Murgtal,,209505,48.718796,8.3623,1,
Au im Murgtal,209505,486959,48.71887,8.362349,,
Au(Sieg),353232,607603,50.773766,7.656537,,
Aubing,,338344,48.155964,11.413203,1,
Aue(Sachs),542498,162455,50.591682,12.698518,,
"Aue, Bahnhof",,542498,50.590164,12.698711,1,
"Aue, Bahnhof",542498,587556,50.591892,12.698675,,
"Aue, Stadion",,30158,50.59566,12.707047,1,
"Aue, Stadion",30158,75917,50.596745,12.708978,,
Aue-Wingeshausen,7749,91445,51.051785,8.290085,,
Aue-Wingeshausen Bf,,7749,51.051785,8.290085,1,
Auehütte,,667232,50.719707,10.416924,1,
Auehütte,667232,133634,50.719673,10.416666,,
"Auerbach (b. Mosbach), Bahnhof",,223287,49.39956,9.223201,1,
Auerbach(V) ob Bf,543139,446819,50.519135,12.382054,,
Auerbach(V) unt Bf,356964,426091,50.511723,12.391421,,
Auerbach(Vogtl) Hp,452800,641749,50.506954,12.379204,,
"Auerbach(b Mosbach, Baden)",223287,474848,49.399563,9.223276,,
"Auerbach, Bahnhof",,409872,49.70174,8.613334,1,
"Auerbach, HP",,452800,50.506733,12.379108,1,
"Auerbach, oberer Bahnhof",,543139,50.51921,12.382171,1,
"Auerbach, unterer Bahnhof",,356964,50.511715,12.391433,1,
Auestadion  Ri. H.-Heine-Straße,607314,76567,51.2994,9.481504,,B
Auestadion  Ri. Park Schönfeld,607314,478802,51.2987,9.481007,,A
Aufhausen(Württ),114821,16339,48.85613,10.317193,,
"Aufhausen, Bahnhof",,114821,48.856632,10.317888,1,
"Augartenstraße, Karlsruhe",90348,525916,48.998966,8.403596,,
"Augartenstraße, Karlsruhe",90348,619704,48.998466,8.403677,,
Auggen,494892,428227,47.789948,7.586788,,
Auggen Bahnhof,,494892,47.790035,7.586731,1,
Augsburg Haunstetterstraße,,206636,48.35528,10.900984,1,
Augsburg Haunstetterstraße,206636,511852,48.355286,10.900985,,
Augsburg Hbf,,178317,48.36544,10.885569,1,
Augsburg Hbf,178317,8751,48.36544,10.88557,,
Augsburg Messe,,151653,48.338684,10.886081,1,
Augsburg Messe,151653,288531,48.338684,10.886086,,
Augsburg Morellstr.,565998,47293,48.355087,10.892948,,
Augsburg Morellstraße,,565998,48.35509,10.892944,1,
Augsburg-Hochzoll,,634408,48.352978,10.943376,1,
Augsburg-Hochzoll,634408,565035,48.352978,10.943376,,
Augsburg-Oberhausen,,264236,48.38077,10.872534,1,
Augsburg-Oberhausen,264236,625803,48.38077,10.872533,,
"August-Bebel-Straße, Karlsruhe",460824,113959,49.024162,8.375802,,
"August-Bebel-Straße, Karlsruhe",460824,279339,49.023914,8.375667,,
Augustfehn,,71580,53.220894,7.759677,1,
Augustfehn,71580,458097,53.22084,7.759684,,
Aukrug,,222977,54.082397,9.78581,1,
Aukrug,222977,657910,54.082397,9.78581,,
Aulendorf,544695,502786,47.953053,9.644046,,
Aulendorf Bahnhof,,544695,47.953003,9.643954,1,
Aulfingen Bahnhof,,113156,47.886456,8.661682,1,
Aumenau,677870,131495,50.400307,8.249234,,
Aumühle,,332181,53.530045,10.31461,1,
Aumühle,332181,17662,53.529926,10.314651,,
Auringen-Medenbach,499591,423453,50.11361,8.332093,,
Auw an der Kyll,461567,46871,49.903595,6.614525,,
"Auw an der Kyll, Bahnhof",,461567,49.90334,6.614529,1,
Außenried,,345628,49.015766,13.181762,1,
Außenried,345628,350003,49.015762,13.181763,,
Avignon TGV,,356735,43.921936,4.786044,1,
Avignon TGV,356735,28314,43.921936,4.786044,,
Aying,,461702,47.969204,11.769619,1,
Aying,461702,675229,47.96876,11.769578,,
Aßlar,501207,661202,50.588657,8.462756,,
Aßlar Bahnhof,,501207,50.588642,8.462738,1,
Aßlar-Werdorf Bahnhof,,95698,50.593086,8.418724,1,
Aßling,,468101,47.989635,11.993973,1,
Aßling(Oberbay),468101,273286,47.98949,11.993518,,
"B.S-Schötmar, Bahnhof",,30408,52.06993,8.754954,1,
"B.S-Sylbach, Bahnhof",,376634,52.026886,8.765527,1,
"BASF, Bahnhof Mitte",,315681,49.51024,8.432018,1,
"BASF, Bahnhof Nord",,615955,49.520176,8.427194,1,
"BASF, Bahnhof Süd",,568080,49.494,8.438944,1,
BOT Feldhausen Bf,,24945,51.615475,6.972014,1,
BOT-Vonderort Bf,,403927,51.501846,6.91241,1,
Baabe,223081,24894,54.362316,13.704806,,
Baabe Bahnhof,,223081,54.36204,13.704707,1,
Baalberge,,93559,51.763046,11.784682,1,
Baalberge,93559,38817,51.763046,11.784682,,
Baar(CH),,338302,47.195366,8.523272,1,
Baar(CH),338302,383664,47.195366,8.523272,,
Baar-Ebenhausen,,277776,48.67494,11.460096,1,
Baar-Ebenhausen,277776,64132,48.67494,11.460092,,
Babenhausen Bahnhof,,650184,49.95799,8.957544,1,
Babenhausen Langstadt,139208,129385,49.922276,8.945733,,
Babenhausen Langstadt Bahnhof,,139208,49.922047,8.945725,1,
Babenhausen(Hess),650184,375480,49.957962,8.957182,,
Babenhausen-Hergershausen Bahnhof,,326919,49.937008,8.916108,1,
Babstadt,,578579,49.240234,9.060363,1,
Babstadt,578579,71669,49.240196,9.060708,,
Babylon,,464599,49.398876,12.869049,1,
Babylon,464599,426929,49.398876,12.869049,,
Bacharach,499721,6620,50.056103,7.769523,,
"Bacharach, Bahnhof",,499721,50.056038,7.769637,1,
Bachern,,636146,48.279026,11.381547,1,
Bachern,636146,624680,48.28016,11.378716,,
Bachfeld,508202,88106,50.4087,10.978413,,
Bachfeld (Bushaltestelle),,508202,50.4087,10.978413,1,
Bachheim,547642,23436,47.862072,8.399399,,
Bachheim Bahnhof,,547642,47.862034,8.399257,1,
Backnang,,655690,48.94265,9.425986,1,
Backnang,655690,358991,48.942677,9.425989,,
Bad Abbach,,422381,48.922733,11.994324,1,
Bad Abbach,422381,243067,48.922733,11.994322,,
Bad Aibling,,32878,47.862064,12.004484,1,
Bad Aibling,32878,514888,47.862026,12.004157,,
Bad Aibling Kurpark,,382295,47.857346,12.015111,1,
Bad Aibling Kurpark,382295,615432,47.857616,12.013823,,
Bad Arolsen,,409890,51.3816,8.997792,1,
Bad Arolsen,409890,348775,51.3816,8.997792,,
Bad Bellingen,617551,22839,47.730804,7.557601,,
Bad Bellingen Bahnhof,,617551,47.730778,7.55758,1,
Bad Belzig,624257,55108,52.136063,12.59495,,1
Bad Belzig,624257,607734,52.135986,12.59494,,2
"Bad Belzig, Bahnhof",,624257,52.136257,12.59523,1,
Bad Bentheim,,271506,52.30985,7.158539,1,
Bad Bentheim,271506,592464,52.30985,7.158539,,
Bad Bentheim(Gr),,32302,52.3091,7.04016,1,
Bad Bentheim(Gr),32302,402368,52.3091,7.04016,,
Bad Bergzabern,636421,168340,49.10321,8.002787,,
"Bad Bergzabern, Bahnhof",,636421,49.103226,8.003765,1,
Bad Berka,,467518,50.89627,11.281618,1,
Bad Berka,467518,260061,50.896137,11.28155,,
Bad Berka Zeughausplatz,268998,513016,50.90009,11.280201,,
"Bad Berka, Zeughausplatz",,268998,50.900265,11.279806,1,
Bad Bevensen,,192740,53.078247,10.574141,1,
Bad Bevensen,192740,350057,53.078274,10.574201,,
Bad Bevensen,192740,654518,53.07822,10.574081,,
Bad Birnbach,,527756,48.432854,13.074036,1,
Bad Birnbach,527756,538539,48.432854,13.074034,,
Bad Blankenburg (Thüringer Wald),,110825,50.682648,11.275498,1,
Bad Blankenburg(Thüringerw),110825,7386,50.682648,11.275498,,
Bad Bodendorf,469236,83127,50.556267,7.217217,,
Bad Bodenteich,,110681,52.835205,10.672757,1,
Bad Bodenteich,110681,203518,52.83515,10.672824,,
Bad Brambach,610040,618706,50.217587,12.311414,,
"Bad Brambach, Bahnhof",,610040,50.21765,12.311662,1,
Bad Bramstedt,,217451,53.920517,9.890114,1,
Bad Bramstedt,217451,664848,53.920578,9.890161,,
Bad Bramstedt Kurhaus,,392351,53.90319,9.89046,1,
Bad Bramstedt Kurhaus,392351,596144,53.904,9.890462,,
Bad Breisig,138600,34590,50.50422,7.304564,,
Bad Breisig Bf,,138600,50.50421,7.304552,1,
Bad Camberg,522328,449167,50.296623,8.255051,,
Bad Camberg Bahnhof,,522328,50.29653,8.255503,1,
Bad Cannstatt,,124535,48.80128,9.217469,1,
Bad Doberan,640316,176855,54.100002,11.905335,,
Bad Doberan Bahnhof,,640316,54.100426,11.903872,1,
Bad Doberan Goethestraße,,120566,54.108353,11.899938,1,
Bad Doberan Goethestraße,120566,109347,54.108463,11.899894,,
Bad Doberan Stadtmitte,,379136,54.10457,11.902749,1,
Bad Doberan Stadtmitte,379136,582212,54.10465,11.9021,,
Bad Driburg(Westf),662743,609591,51.730324,9.03081,,
"Bad Driburg, Bahnhof",,662743,51.730328,9.030808,1,
Bad Dürkheim,426941,180779,49.460632,8.170701,,
"Bad Dürkheim, Bahnhof",,426941,49.46098,8.170447,1,
"Bad Dürkheim, Trift",,233537,49.466385,8.192968,1,
Bad Dürkheim-Trift,233537,501642,49.466415,8.193072,,
Bad Dürrenberg,,385333,51.305164,12.071053,1,
Bad Dürrenberg,385333,452325,51.305164,12.071053,,
Bad Elster,85987,91095,50.296673,12.256286,,
"Bad Elster, Bahnhof",,85987,50.296703,12.256138,1,
Bad Ems,112948,112149,50.327652,7.728637,,
Bad Ems Hauptbahnhof,,112948,50.32764,7.72862,1,
Bad Ems West,317242,74158,50.330692,7.706039,,
Bad Ems Westbahnhof,,317242,50.330692,7.706027,1,
Bad Endorf,,16412,47.904766,12.302122,1,
Bad Endorf,16412,434585,47.905067,12.301558,,
Bad Fallingbostel,,93351,52.86277,9.699813,1,
Bad Fallingbostel,93351,487192,52.86279,9.700049,,
Bad Freienwalde,322798,56745,52.789932,14.035751,,
"Bad Freienwalde, Bahnhof",,322798,52.789925,14.035805,1,
Bad Friedrichshall Hbf,,491863,49.231953,9.199979,1,
Bad Friedrichshall Hbf,491863,351361,49.23157,9.199771,,
Bad Friedrichshall-Kochendorf,,140569,49.217937,9.211523,1,
Bad Friedrichshall-Kochendorf,140569,601189,49.218563,9.210985,,
Bad Gandersheim,,199891,51.86745,10.020405,1,
Bad Gandersheim,199891,94468,51.867397,10.020347,,
Bad Gastein,,309596,47.11178,13.131924,1,
Bad Gastein,309596,441331,47.11178,13.131924,,
Bad Griesbach Bahnhof,,523166,48.448647,8.230751,1,
Bad Griesbach(Schwarzwald),523166,206165,48.44862,8.230569,,
Bad Grönenbach,,315160,47.88247,10.253712,1,
Bad Grönenbach,315160,31781,47.88247,10.253715,,
Bad Harzburg,517734,573103,51.88837,10.554219,,
"Bad Harzburg, Bahnhof Parkdeck",,517734,51.88719,10.556399,1,
Bad Herrenalb,,307250,48.80245,8.43907,1,
Bad Herrenalb,307250,474391,48.80243,8.438957,,
Bad Herrenalb Kullenmühle,,347825,48.808945,8.44402,1,
Bad Hersfeld,,553878,50.869766,9.716581,1,
Bad Hersfeld,553878,83150,50.869766,9.716581,,
Bad Hofgastein,,93359,47.195343,13.100503,1,
Bad Hofgastein,93359,154056,47.195343,13.100503,,
Bad Holzhausen,126163,242927,52.289097,8.545854,,
Bad Homburg,373661,382158,50.22,8.621315,,
Bad Homburg,373661,416788,50.219906,8.620624,,
Bad Homburg v.d.H. Bahnhof,,373661,50.219887,8.621003,1,
Bad Honnef Bf,,467177,50.63977,7.219526,1,
Bad Honnef Rhöndorf Bf,,55925,50.65787,7.210202,1,
Bad Honnef(Rhein),467177,256102,50.63977,7.219533,,
Bad Höhenstadt,,643607,48.49461,13.323192,1,
Bad Höhenstadt,643607,15105,48.494606,13.323195,,
Bad Hönningen,626173,394799,50.513676,7.310871,,
Bad Hönningen Bf,,626173,50.513676,7.310876,1,
Bad Karlshafen,,90648,51.64627,9.44571,1,
Bad Karlshafen,90648,360400,51.64627,9.44571,,
Bad Kissingen,,570987,50.191547,10.079888,1,
Bad Kissingen,570987,573400,50.191547,10.079885,,
Bad Kleinen,615819,332718,53.766975,11.466925,,
Bad Kleinen Bahnhof,,615819,53.76746,11.466429,1,
Bad Kohlgrub,,46293,47.66801,11.058207,1,
Bad Kohlgrub,46293,506432,47.668007,11.058204,,
Bad Kohlgrub Kurhaus,,638453,47.670216,11.039181,1,
Bad Kohlgrub Kurhaus,638453,523323,47.67021,11.039181,,
Bad Kreuznach,440528,51738,49.8424,7.866435,,
"Bad Kreuznach, Bahnhof",,440528,49.84234,7.866466,1,
Bad Krozingen,670482,9346,47.91972,7.697632,,
Bad Krozingen Bahnhof,,670482,47.919777,7.697762,1,
Bad Krozingen Ost,435427,583982,47.91714,7.70979,,
Bad Krozingen Ost Bahnhof,,435427,47.916756,7.710249,1,
Bad König,168272,8468,49.73858,9.001539,,
Bad König Bahnhof,,168272,49.738625,9.001668,1,
Bad König Zell,455275,571096,49.719707,8.99404,,
Bad König-Zell Bahnhof,,455275,49.7198,8.994128,1,
Bad Kösen,,595263,51.13074,11.718274,1,
Bad Kösen,595263,379240,51.13074,11.718274,,
Bad Köstritz,,298090,50.93159,12.0286,1,
Bad Köstritz,298090,74493,50.93159,12.028452,,
Bad Kötzting,,364381,49.172916,12.851891,1,
Bad Kötzting,364381,98676,49.17292,12.851892,,
Bad Laasphe,337243,406105,50.929314,8.42072,,
Bad Laasphe Bf,,337243,50.92931,8.420718,1,
Bad Laasphe-Feudingen Bf,,6310,50.94095,8.329027,1,
Bad Laasphe-Niederlaasphe,120585,127884,50.924324,8.442001,,
Bad Laasphe-Niederlaasphe Bf,,120585,50.92432,8.441999,1,
Bad Laasphe-Oberndorf Bf,,241296,50.95224,8.300164,1,
Bad Langensalza,,630340,51.10176,10.640657,1,
Bad Langensalza,630340,235078,51.1017,10.640671,,
Bad Lausick,,509690,51.143803,12.648695,1,
Bad Lausick,509690,338244,51.143803,12.648695,,
Bad Lauterberg im Harz Barbis,,99130,51.6189,10.414785,1,
Bad Lauterberg im Harz Barbis,99130,652839,51.619377,10.414087,,
Bad Liebenwerda,320729,350971,51.51822,13.403101,,1
"Bad Liebenwerda, Bahnhof",,320729,51.518406,13.402704,1,
Bad Liebenzell,327967,193775,48.77258,8.734039,,
"Bad Liebenzell, Bahnhof",,327967,48.772594,8.734059,1,
Bad Lobenstein,,463625,50.452118,11.642169,1,
Bad Lobenstein,463625,127270,50.452415,11.641806,,
Bad Malente-Gremsmühlen,86053,168002,54.16687,10.551712,,
Bad Malente-Gremsmühlen,86053,671453,54.166954,10.551787,,
Bad Malente-Gremsmühlen Bahnhof,,86053,54.166912,10.55175,1,
Bad Mergentheim,289148,485966,49.49365,9.771662,,
"Bad Mergentheim, Bahnhof",,289148,49.493713,9.771712,1,
Bad Münder(Deister),109940,118065,52.178192,9.468062,,
"Bad Münder, Bahnhof",,109940,52.178898,9.469159,1,
Bad Münster a Stein,624396,340025,49.813427,7.846989,,
"Bad Münster, Bahnhof",,624396,49.813404,7.846946,1,
Bad Münstereifel,30257,421832,50.55974,6.764081,,
Bad Münstereifel Bf,,30257,50.559277,6.764305,1,
Bad Münstereifel Iversheim Bf/Mitte,,607255,50.583035,6.769165,1,
Bad Münstereifel-Arloff,,412156,50.597675,6.786608,1,
Bad Münstereifel-Arloff,412156,163199,50.597675,6.786608,,
Bad Münstereifel-Iversheim,607255,602031,50.583035,6.769162,,
Bad Nauheim,602225,67122,50.367905,8.749334,,
Bad Nauheim Bahnhof,,602225,50.367798,8.748327,1,
Bad Nenndorf,160557,168586,52.343735,9.378603,,
Bad Nenndorf Bahnhof,,160557,52.343735,9.37834,1,
Bad Neuenahr,123498,352838,50.547657,7.144032,,
Bad Neuenahr-Ahrweiler Ahrweiler Bf,,309865,50.546543,7.107066,1,
Bad Neuenahr-Ahrweiler Ahrweiler Marktbahnhof,,165768,50.54423,7.094229,1,
Bad Neuenahr-Ahrweiler Bad Neuenahr Bf,,123498,50.54776,7.144301,1,
Bad Neuenahr-Ahrweiler Heimersheim/Lohrsdorf Bf,,144335,50.548553,7.186127,1,
Bad Neuenahr-Ahrweiler Walporzheim Bf,,364854,50.53251,7.078473,1,
Bad Neustadt (Saale),,302661,50.32813,10.226134,1,
Bad Neustadt(Saale),302661,649330,50.32813,10.226134,,
Bad Niedernau,530034,206261,48.460766,8.896533,,
Bad Niedernau Bahnhof,,530034,48.460594,8.896654,1,
Bad Oeynhausen,557702,633570,52.2054,8.796523,,
Bad Oeynhausen Süd,142510,460695,52.19713,8.801723,,
"Bad Oeynhausen, Bf/ZOB",,557702,52.2054,8.796519,1,
"Bad Oeynhausen, Südbahnhof",,142510,52.197124,8.80172,1,
Bad Oldesloe,,317860,53.805344,10.382863,1,
Bad Oldesloe,317860,150906,53.805286,10.382838,,
Bad Peterstal,270130,310301,48.428894,8.201948,,
Bad Peterstal Bahnhof,,270130,48.42876,8.201924,1,
Bad Pyrmont,56146,203379,51.97423,9.272719,,
"Bad Pyrmont, Bahnhof",,56146,51.974438,9.272491,1,
Bad Rappenau,,417910,49.237724,9.101048,1,
Bad Rappenau,417910,480229,49.237766,9.101529,,
Bad Rappenau Kurpark,,531950,49.240387,9.1134,1,
Bad Rappenau Kurpark,531950,486438,49.24037,9.113526,,
Bad Reichenhall,,254855,47.73117,12.881823,1,
Bad Reichenhall,254855,213385,47.731167,12.881825,,
Bad Reichenhall-Kirchberg,,657613,47.71854,12.873999,1,
Bad Reichenhall-Kirchberg,657613,503933,47.718536,12.874001,,
Bad Rodach,,532572,50.336987,10.778391,1,
Bad Rodach,532572,238230,50.336987,10.778387,,
Bad Rotenfels Bahnhof/Rotherma,,375203,48.81583,8.303137,1,
Bad Rotenfels Bf,375203,4632,48.815823,8.3031,,
Bad Rotenfels Schloss,,515316,48.820324,8.296759,1,
Bad Rotenfels Schloss,515316,398863,48.81995,8.297131,,
Bad Rotenfels Weinbrennerstr.,,239731,48.8115,8.312156,1,
Bad Rotenfels Weinbrennerstraße,239731,566616,48.81154,8.312085,,
Bad Saarow,258043,653408,52.293255,14.064929,,
Bad Saarow Klinikum,44740,669482,52.284634,14.065964,,
"Bad Saarow, Bahnhof",,258043,52.293602,14.064754,1,
"Bad Saarow, Klinikum Bhf",,44740,52.28451,14.065979,1,
"Bad Saarow, Pieskow Bahnhof",,674620,52.270782,14.07104,1,
Bad Saarow-Pieskow,674620,111443,52.27101,14.070825,,
Bad Sachsa,,143664,51.581913,10.57312,1,
Bad Sachsa,143664,432333,51.581944,10.573211,,
Bad Salzdetfurth,196914,187265,52.062634,10.005595,,
Bad Salzdetfurth Solebad,479253,656019,52.06994,10.018916,,
Bad Salzdetfurth/Bahnhof,,196914,52.062733,10.005723,1,
Bad Salzhausen,465941,222824,50.418762,8.979988,,
Bad Salzschlirf,197653,304576,50.626934,9.494484,,
Bad Salzschlirf Bahnhof,,197653,50.62721,9.494194,1,
Bad Salzuflen,319324,549180,52.081627,8.740428,,
"Bad Salzuflen, Bahnhof",,319324,52.081627,8.740428,1,
Bad Salzuflen-Sylbach,376634,327282,52.026882,8.765529,,
Bad Salzungen,,122005,50.815193,10.230999,1,
Bad Salzungen,122005,331168,50.81491,10.22943,,
Bad Sassendorf,614819,128476,51.58717,8.162439,,
"Bad Sassendorf, Bahnhof",,614819,51.58717,8.162434,1,
Bad Saulgau,339963,327472,48.01359,9.501083,,
Bad Saulgau Bahnhof,,339963,48.013615,9.501247,1,
Bad Schallerbach-Wallern,,403488,48.228764,13.922237,1,
Bad Schallerbach-Wallern,403488,531750,48.228764,13.922237,,
Bad Schandau,457358,326784,50.91929,14.137538,,
Bad Schandau Nationalparkbahnhof,,457358,50.91927,14.138099,1,
Bad Schandau Nationalparkbahnhof,457358,645414,50.9193,14.137713,,
Bad Schlema,311409,214580,50.6189,12.680229,,
"Bad Schlema, Bahnhof",,311409,50.618526,12.679882,1,
Bad Schussenried,380087,66686,47.994034,9.668497,,
Bad Schussenried Bahnhof,,380087,47.99413,9.668424,1,
Bad Schwartau,,255885,53.916294,10.702754,1,
Bad Schwartau,255885,228613,53.916245,10.702775,,
Bad Schönborn Süd,,271467,49.199997,8.642116,1,
Bad Schönborn Süd,271467,592063,49.2,8.641924,,
Bad Schönborn-Kronau,,225769,49.219563,8.647093,1,
Bad Schönborn-Kronau,225769,66961,49.219345,8.646821,,
Bad Sebastiansweiler-Belsen,44150,585715,48.395565,9.030023,,
Bad Segeberg,,474577,53.933735,10.308313,1,
Bad Segeberg,474577,168810,53.933804,10.308166,,
Bad Sobernheim,679535,131533,49.78285,7.649816,,
"Bad Sobernheim, Bahnhof",,679535,49.782948,7.649253,1,
Bad Soden (Taunus) Bahnhof,,359956,50.143017,8.503887,1,
Bad Soden(Taunus),359956,130208,50.14296,8.504426,,
Bad Soden-Salmünster,493061,320451,50.280743,9.372053,,
Bad Soden-Salmünster Bahnhof,,493061,50.28032,9.371359,1,
Bad Sooden-Allendorf,,128050,51.267975,9.968696,1,
Bad Sooden-Allendorf,128050,342375,51.267975,9.968696,,
Bad St Peter Süd,,212558,54.30501,8.648041,1,
Bad St Peter Süd,212558,327676,54.30501,8.648041,,
Bad St Peter-Ording,,100643,54.31729,8.614736,1,
Bad St Peter-Ording,100643,338381,54.31729,8.614736,,
Bad Staffelstein,,25945,50.108257,10.994238,1,
Bad Staffelstein,25945,113934,50.108257,10.994239,,
Bad Steben,,56148,50.365097,11.646774,1,
Bad Steben,56148,514919,50.365093,11.64677,,
Bad Suderode,,324815,51.733757,11.125773,1,
Bad Suderode,324815,274341,51.733673,11.125782,,
Bad Sulza,,420349,51.094772,11.634599,1,
Bad Sulza,420349,197216,51.095383,11.631817,,
Bad Säckingen,220849,168291,47.55586,7.94863,,
Bad Säckingen Bahnhof,,220849,47.555973,7.948922,1,
Bad Teinach-Neubulach,168833,127645,48.67847,8.727148,,
Bad Teinach-Neubulach Bahnhof,,168833,48.67846,8.727178,1,
Bad Tölz,,388004,47.760822,11.573903,1,
Bad Tölz,388004,555695,47.76058,11.57394,,
Bad Tönisstein,,13423,50.459316,7.298859,1,
Bad Tönisstein,13423,606270,50.459316,7.298859,,
Bad Urach,271817,517961,48.491245,9.396483,,
Bad Urach Bahnhof,,271817,48.490856,9.397519,1,
Bad Urach Ermstalklinik,,337288,48.495773,9.388059,1,
Bad Urach Ermstalklinik,337288,425146,48.494156,9.386901,,
Bad Urach Wasserfall,,671248,48.49919,9.376642,1,
Bad Urach Wasserfall,671248,582356,48.499264,9.376401,,
Bad Vigaun,,19640,47.664158,13.124053,1,
Bad Vigaun,19640,101522,47.664158,13.124053,,
Bad Vilbel,374046,330705,50.188587,8.73956,,
Bad Vilbel Bahnhof,,374046,50.18855,8.739602,1,
Bad Vilbel Süd,272652,392560,50.178585,8.733227,,
Bad Vilbel Südbahnhof,,272652,50.17863,8.73344,1,
Bad Vilbel-Dortelweil Bahnhof,,574261,50.207363,8.750958,1,
Bad Vilbel-Gronau,388754,498311,50.19153,8.783203,,
Bad Vilbel-Gronau Bahnhof,,388754,50.19176,8.7842,1,
Bad Waldsee,325458,111086,47.925243,9.752274,,
Bad Waldsee Bahnhof,,325458,47.925148,9.752308,1,
Bad Wildbad Bf,563500,255387,48.75572,8.551089,,
Bad Wildbad Kurpark,606560,356219,48.748756,8.550459,,
Bad Wildbad Nord,640304,428309,48.763935,8.555095,,
Bad Wildbad Uhlandplatz,297082,289728,48.750835,8.549366,,
"Bad Wildbad, Bhf",,563500,48.755566,8.551063,1,
"Bad Wildbad, Kurpark",,606560,48.748653,8.550497,1,
"Bad Wildbad, Nord",,640304,48.76398,8.555088,1,
"Bad Wildbad, Uhlandplatz",,297082,48.75081,8.549419,1,
Bad Wildungen,,529629,51.119617,9.136091,1,
Bad Wildungen,529629,374161,51.119617,9.136091,,
Bad Wimpfen,,189158,49.22973,9.166831,1,
Bad Wimpfen,189158,240852,49.229744,9.167297,,
Bad Wimpfen Im Tal,602620,411013,49.229847,9.187046,,
"Bad Wimpfen, Im Tal",,602620,49.229706,9.186406,1,
Bad Wimpfen-Hohenstadt,,277696,49.24268,9.13866,1,
Bad Wimpfen-Hohenstadt,277696,513521,49.24254,9.138753,,
Bad Windsheim,,161109,49.5066,10.412947,1,
Bad Windsheim,161109,121487,49.5066,10.412942,,
Bad Wörishofen,,374678,48.00571,10.597875,1,
Bad Wörishofen,374678,102498,48.00571,10.597875,,
Bad Zurzach,,435342,47.588314,8.295588,1,
Bad Zurzach,435342,325893,47.588314,8.295588,,
Bad Zwischenahn,,188234,53.182568,8.002996,1,
Bad Zwischenahn,188234,489134,53.18242,8.003398,,
Baddeckenstedt,520487,123270,52.08916,10.228767,,
"Baddeckenstedt, Bahnhof",,520487,52.089134,10.228865,1,
Baden(Achim),,148878,53.007835,9.081262,1,
Baden(CH),,267775,47.476425,8.307709,1,
Baden(CH),267775,42037,47.476425,8.307709,,
Baden(Verden),148878,583893,53.00789,9.081283,,
Baden-Baden,,416317,48.7902,8.191036,1,
Baden-Baden,416317,390193,48.790325,8.190831,,
Baden-Baden Haueneberstein,,629252,48.81186,8.209039,1,
Baden-Baden Haueneberstein,629252,302260,48.81191,8.209021,,
Baden-Baden Rebland,,632950,48.733913,8.146624,1,
Baden-Baden Rebland,632950,37513,48.733845,8.146572,,
Bagenz,363892,479919,51.65438,14.426997,,1
"Bagenz, Bahnhof",,363892,51.65485,14.426863,1,
Bahlingen Bahnhof,,533718,48.124557,7.741681,1,
Bahlingen Riedlen,,165249,48.117992,7.747763,1,
Bahlingen Riedlen,165249,559500,48.11802,7.747776,,
Bahlingen am Kaiserstuhl,533718,540699,48.124493,7.741516,,
Bahnbrücken,,502888,49.119286,8.764826,1,
Bahnbrücken,502888,546438,49.119446,8.764854,,
Bahnhof Goßdorf-Kohlmühle,,12036,50.941284,14.164842,1,
Bahnhof Goßdorf-Kohlmühle,12036,294222,50.941166,14.16486,,
Bahnhof Goßdorf-Kohlmühle,12036,329779,50.94117,14.164725,,
"Bahnhof Reken, Bahnhof",,319189,51.80185,7.049951,1,
"Bahnhof, Markkleeberg",646820,156747,51.27902,12.372511,,1
Bahnsdorf,440813,449924,51.58118,14.111089,,1
Bahnsdorf,440813,603941,51.582443,14.113767,,2
"Bahnsdorf (OSL), Bahnhof",,440813,51.58173,14.112302,1,
Baienfurt Niederbiegen Bahnhof,,539919,47.830456,9.620957,1,
Baierbrunn,,399199,48.018913,11.480209,1,
Baierbrunn,399199,179908,48.01874,11.480027,,
Baiersbronn Bahnhof,,30877,48.503513,8.372101,1,
Baiersbronn Bf,30877,236051,48.503574,8.372038,,
Baiersbronn Schule,,536739,48.51061,8.375847,1,
Baiersbronn Schule,536739,49621,48.51061,8.375858,,
Baiersdorf,,267950,49.656147,11.036971,1,
Baiersdorf,267950,227887,49.656147,11.036976,,
Baitz,410968,415650,52.164185,12.685215,,1
Baitz,410968,620800,52.163914,12.683916,,2
"Baitz, Bahnhof",,410968,52.164062,12.684612,1,
Bakov n.Jizerou,,515981,50.472054,14.923056,1,
Bakov n.Jizerou,515981,389411,50.472122,14.922634,,
Bakov n.Jizerou,515981,620585,50.472183,14.922822,,
Bakov nad Jizerou mesto,,365004,50.47898,14.939019,1,
Bakov nad Jizerou mesto,365004,512163,50.478954,14.939109,,
Balbersdorf,,331223,49.290436,12.683062,1,
Balbersdorf,331223,411883,49.29044,12.683064,,
Baldham,,108422,48.099205,11.786992,1,
Baldham,108422,282870,48.099255,11.78678,,
Balduinstein,77982,461847,50.34739,7.967609,,
Balduinstein Bf,,77982,50.347385,7.967598,1,
Balgheim,428170,363649,48.065887,8.759892,,
Balgheim Bahnhof,,428170,48.065845,8.759948,1,
Balgstädt,,116288,51.208294,11.738454,1,
Balgstädt,116288,547703,51.208294,11.738454,,
Balingen Bahnhof/Busbf,,430072,48.27928,8.850696,1,
Balingen Süd,,575475,48.269024,8.846402,1,
Balingen Süd,575475,627594,48.268944,8.846341,,
Balingen(Württ),430072,251221,48.27847,8.850307,,
Ballstädt (bei Gotha),,675007,51.040897,10.70762,1,
Ballstädt(Gotha),675007,525011,51.04075,10.707666,,
Baltersweiler,,84169,49.493782,7.166536,1,
Baltersweiler,84169,302256,49.493366,7.167021,,2
Baltersweiler,84169,72465,49.493553,7.166765,,1
Balve,559158,347162,51.332596,7.863071,,
"Balve, Bahnhof",,559158,51.332596,7.86307,1,
"Balve, Binolen",,354732,51.371983,7.859432,1,
"Balve, Garbeck",,627216,51.321457,7.839903,1,
"Balve, Sanssouci",,27047,51.353664,7.878845,1,
"Balve, Volkringhausen",,47103,51.359894,7.872215,1,
Balve-Garbeck,627216,670338,51.32146,7.839903,,
Balve-Sanssouci,27047,151357,51.353664,7.878844,,
Balve-Volkringhausen,47103,355981,51.35989,7.872214,,
Bamberg,,152141,49.90076,10.899484,1,
Bamberg,152141,494364,49.90076,10.899489,,
Bammental,564120,529948,49.35959,8.783685,,
"Bammental, Bahnhof",,564120,49.35944,8.783592,1,
Bannemin-Mölschow,144187,389647,54.071262,13.836052,,
Bansin Seebad,,590827,53.96446,14.129754,1,
Bansin Seebad,590827,339764,53.96439,14.129385,,
Banteln,379976,32301,52.066265,9.75033,,
Banteln Bahnhof,,379976,52.0662,9.750646,1,
Bantorf,336947,643276,52.332253,9.417771,,
Bantorf Bahnhof,,336947,52.33173,9.418746,1,
Bantzenheim,,221135,47.810986,7.503901,1,
Bantzenheim,221135,558769,47.810986,7.503901,,
Barbelroth,470068,676931,49.10412,8.070307,,
"Barbelroth, Bahnhof",,470068,49.104084,8.070473,1,
Bardowick,,626981,53.290512,10.371932,1,
Bardowick,626981,527143,53.29047,10.371995,,
Bargstedt,,451601,53.457645,9.445444,1,
Bargstedt,451601,289372,53.457546,9.446279,,
Bargteheide,,240121,53.727962,10.268982,1,
Bargteheide,240121,364251,53.728203,10.269103,,
Barleben,,21227,52.208946,11.620875,1,
Barleben,21227,570312,52.208946,11.620875,,
Barmstedt,,515506,53.792904,9.773779,1,
Barmstedt,515506,357764,53.79297,9.772005,,
Barmstedt Brunnenstr,45115,148191,53.79261,9.761877,,
Barmstedt Brunnenstraße,,45115,53.79263,9.761498,1,
Barnstorf(Han),291920,57765,52.708035,8.510958,,
Barnstorf(Kr Diepholz),,291920,52.70698,8.509679,1,
Barnten,465923,571135,52.195145,9.81479,,
Barnten/Bahnhof,,465923,52.19512,9.814355,1,
Barrien,179585,224720,52.946926,8.818601,,
Barrien,179585,448002,52.946983,8.818477,,
Barrien(Syke),,179585,52.946957,8.818539,1,
Barsinghausen,204393,181870,52.30489,9.467112,,
Barsinghausen Bahnhof,,204393,52.30495,9.46668,1,
Barth,668231,570641,54.362343,12.72646,,
Barth Bahnhof,,668231,54.36272,12.726397,1,
Barthmühle,415966,33745,50.557957,12.163681,,
"Barthmühle, Bahnhof",,415966,50.55754,12.163944,1,
Baruth(Mark),38852,20096,52.058723,13.511465,,1
Baruth(Mark),38852,339890,52.058765,13.511761,,2
"Baruth, Bahnhof",,38852,52.058453,13.511676,1,
Basdorf,330908,543454,52.71556,13.433993,,
"Basdorf (BAR), Bahnhof",,330908,52.71546,13.43386,1,
Basel Bad Bf,,112669,47.567287,7.607805,1,
Basel Bad Bf,112669,589979,47.567287,7.607805,,
Basel Bad Bf (FlixTrain),,655475,47.567795,7.606924,1,
Basel Bad Bf (FlixTrain),655475,267543,47.567795,7.606924,,
Basel SBB,,292057,47.547413,7.589563,1,
Basel SBB,292057,320476,47.547413,7.589563,,
Basse-Ham,,610100,49.38074,6.235114,1,
Basse-Ham,610100,204118,49.38074,6.235114,,
Bassum,,211082,52.847473,8.73999,1,
Bassum,211082,678230,52.847355,8.739826,,
Batzenhäusle,43981,132516,48.089066,7.94108,,
Batzenhäusle Bahnhof,,43981,48.088867,7.940604,1,
Bauerbach,499640,268374,49.073963,8.748153,,
Bauerbach (Baden),,499640,49.073895,8.748189,1,
Baumholder,192610,353721,49.61222,7.330917,,
"Baumholder, Bahnhof",,192610,49.612213,7.331034,1,
Baunach,,503377,49.989094,10.854119,1,
Baunach,503377,510394,49.98909,10.854115,,
Baunatal-Guntershausen,,229992,51.229916,9.466997,1,
Baunatal-Guntershausen,229992,622151,51.229916,9.466997,,
Baunatal-Guntershausen Bahnhof,,574338,51.23013,9.466244,1,
Baunatal-Guntershausen Gl.1 Ri. Kassel,574338,630039,51.230103,9.467305,,1
Baunatal-Guntershausen Gl.2 Ri. Melsungen,574338,239951,51.230057,9.467179,,2
Baunatal-Rengershausen,,644111,51.25492,9.468667,1,
Baunatal-Rengershausen,644111,246082,51.25492,9.468667,,
Baunatal-Rengershausen Bahnhof,,368067,51.254913,9.468686,1,
Baunatal-Rengershausen Gl.1 Ri. Kassel,368067,513807,51.255054,9.46882,,1
Baunatal-Rengershausen Gl.2 Ri. Melsungen,368067,383905,51.254913,9.468686,,2
Bautzen,274688,620724,51.173096,14.428735,,
Bautzen Bahnhof,,274688,51.173386,14.428965,1,
Bavendorf,,640648,53.187473,10.629537,1,
Bavendorf,640648,234401,53.187473,10.629537,,
Bayerbach,,229780,48.41441,13.134447,1,
Bayerbach,229780,35925,48.414413,13.134451,,
Bayerisch Eisenstein,,603738,49.12147,13.208801,1,
Bayerisch Eisenstein,603738,341938,49.12147,13.208802,,
Bayerisch Gmain,,160382,47.72038,12.895073,1,
Bayerisch Gmain,160382,418427,47.720375,12.89507,,
Bayreuth Hbf,,423088,49.949615,11.579985,1,
Bayreuth Hbf,423088,630079,49.949615,11.579985,,
Bayreuth-St Georgen,,33895,49.95734,11.596684,1,
Bayreuth-St Georgen,33895,8544,49.95734,11.596683,,
Bayrischzell,,247236,47.675243,12.011446,1,
Bayrischzell,247236,59738,47.675545,12.011157,,
Bebra,,591899,50.969566,9.797788,1,
Bebra,591899,542204,50.969566,9.797788,,
Bechstedt-Trippstein,,287434,50.65973,11.168151,1,
Bechstedt-Trippstein,287434,566484,50.65988,11.168365,,
Beckingen (Saar),,325365,49.38678,6.690223,1,
Beckingen(Saar),325365,478591,49.386875,6.690136,,2
Beckingen(Saar),325365,66280,49.386772,6.69043,,1
Beckum-Neubeckum,652935,520903,51.80185,8.020974,,
Bedburg Bf,,196788,50.987473,6.572605,1,
Bedburg(Erft),196788,608207,50.986755,6.573134,,
Bedburg-Hau,168757,166582,51.758053,6.173479,,
Bedburg-Hau Bahnhof,,168757,51.75839,6.174067,1,
Beelen,170936,269399,51.92932,8.116159,,
"Beelen, Bahnhof",,170936,51.92932,8.116162,1,
Beelitz Stadt,29593,105064,52.239388,12.966848,,2
Beelitz Stadt,29593,288118,52.241558,12.967232,,1
"Beelitz, Stadt Bhf",,29593,52.239395,12.966812,1,
Beelitz-Heilstätten,551293,26105,52.26231,12.925821,,1
Beelitz-Heilstätten,551293,568744,52.26224,12.925891,,2
"Beelitz-Heilstätten, Bahnhof",,551293,52.262257,12.925766,1,
Beerfelden Hetzbach,270210,213849,49.5949,8.992856,,
Beeskow,292207,494621,52.177685,14.250974,,
Beeskow,292207,7871,52.17746,14.249324,,1b
"Beeskow, Bahnhof",,292207,52.17766,14.250828,1,
"Beeskow, Oegeln Bhf",,409198,52.172775,14.270727,1,
"Beeskow, Schneeberg Bhf",,642381,52.164574,14.330195,1,
Beetz-Sommerfeld,188867,50648,52.804363,13.021806,,1
"Beetz-Sommerfeld, Bahnhof",,188867,52.80438,13.021576,1,
Behringersdorf,,70705,49.481575,11.198497,1,
Behringersdorf,70705,418449,49.481575,11.198498,,
Beienheim,216298,127800,50.35913,8.821022,,
"Beifang, Bahnhof",,317275,51.693672,7.454607,1,
Beilrode,,92194,51.571007,13.064935,1,
Beilrode,92194,255974,51.571007,13.064935,,
Beimerstetten,180436,480644,48.482,9.976914,,
Beimerstetten Bahnhof,,180436,48.48196,9.976851,1,
Bela p.Bezdezem,,416644,50.48844,14.835677,1,
Bela p.Bezdezem,416644,491488,50.48834,14.835901,,
Bela p.Bezdezem mesto,,437086,50.4935,14.787339,1,
Bela p.Bezdezem mesto,437086,493906,50.493294,14.787267,,
Bela p.Bezdezem z.,,62815,50.50013,14.868968,1,
Bela p.Bezdezem z.,62815,651937,50.50019,14.868879,,
Bela u Stare Paky,,625390,50.53247,15.442552,1,
Bela u Stare Paky,625390,140404,50.53247,15.442552,,
Bela u Stare Paky z.,,432914,50.53372,15.445615,1,
Bela u Stare Paky z.,432914,505575,50.53372,15.445615,,
Beldorf,,323994,54.125267,9.356217,1,
Beldorf,323994,155098,54.125267,9.356217,,
Belfort-Montbéliard TGV,,523613,47.58594,6.897634,1,
Belfort-Montbéliard TGV,523613,320439,47.58594,6.897634,,
Belgershain,,404901,51.233948,12.542785,1,
Belgershain,404901,318956,51.233948,12.542785,,
Belleben,,26365,51.673603,11.633376,1,
Belleben,26365,660567,51.673603,11.633376,,
Bellenberg,111091,29727,48.254646,10.09039,,
Bellenberg Bahnhof,,111091,48.2545,10.090299,1,
Bellheim Am Mühlbuckel,501580,540677,49.19264,8.297626,,
Bellheim Bf,366124,263376,49.188305,8.29456,,
"Bellheim, Am Mühlbuckel",,501580,49.193058,8.298699,1,
"Bellheim, Bahnhof",,366124,49.188473,8.294531,1,
Bellinzona,,440561,46.19543,9.029519,1,
Bellinzona,440561,122512,46.19543,9.029519,,
Belsen Bahnhof,,44150,48.39552,9.030054,1,
Bempflingen,,315884,48.5723,9.273452,1,
Bempflingen,315884,456550,48.572365,9.273425,,
Benediktbeuern,,254131,47.709267,11.40352,1,
Benediktbeuern,254131,197780,47.70912,11.403051,,
Benesov n.Ploucnici,,613473,50.73822,14.30427,1,
Benesov n.Ploucnici,613473,296836,50.73822,14.30427,,
Bengel,410840,515930,50.01054,7.058601,,
"Bengel (Mosel), Bahnhof",,410840,50.01068,7.058818,1,
Bening,,638333,49.13819,6.828917,1,
Bening,638333,423988,49.13819,6.828917,,
Benneckenstein,,123242,51.67369,10.715308,1,
Benneckenstein,123242,577046,51.67365,10.714974,,
Benneckenstein Bek_Klb 001 P1,,602200,51.67399,10.71833,1,
Benneckenstein Bek_Klb 001 P1,602200,85821,51.67399,10.71833,,
Benneckenstein Bek_Klb 002 P2,,632251,51.67438,10.72131,1,
Benneckenstein Bek_Klb 002 P2,632251,187126,51.67438,10.72131,,
Benneckenstein Bek_Klb 003 P3,,300119,51.67336,10.72314,1,
Benneckenstein Bek_Klb 003 P3,300119,78449,51.67336,10.72314,,
Benneckenstein Bek_Klb 004 P4,,213775,51.67139,10.72322,1,
Benneckenstein Bek_Klb 004 P4,213775,144560,51.67139,10.72322,,
Benneckenstein Bek_Klb 005 P5,,238979,51.67034,10.72459,1,
Benneckenstein Bek_Klb 005 P5,238979,270863,51.67034,10.72459,,
Benneckenstein Bek_Klb 006 P6,,1021,51.66991,10.72821,1,
Benneckenstein Bek_Klb 006 P6,1021,34759,51.66991,10.72821,,
Benneckenstein Bek_Klb 007 P7,,157398,51.66904,10.73159,1,
Benneckenstein Bek_Klb 007 P7,157398,454750,51.66904,10.73159,,
Benneckenstein Bek_Klb 008 P8,,60001,51.66805,10.73471,1,
Benneckenstein Bek_Klb 008 P8,60001,479381,51.66805,10.73471,,
Benneckenstein Bek_Klb 009 P9,,579245,51.66421,10.73796,1,
Benneckenstein Bek_Klb 009 P9,579245,48699,51.66421,10.73796,,
Benneckenstein Bek_Klb 010 P10,,258897,51.6628,10.74179,1,
Benneckenstein Bek_Klb 010 P10,258897,253254,51.6628,10.74179,,
Benneckenstein Bek_Klb 011 P11,,298347,51.66199,10.74686,1,
Benneckenstein Bek_Klb 011 P11,298347,159638,51.66199,10.74686,,
Benneckenstein Bek_Klb 012 P12,,192198,51.66273,10.75239,1,
Benneckenstein Bek_Klb 012 P12,192198,499562,51.66273,10.75239,,
Benneckenstein Bek_Klb 013 P13,,121565,51.66254,10.75424,1,
Benneckenstein Bek_Klb 013 P13,121565,616842,51.66254,10.75424,,
Benneckenstein Bek_Klb 014 P14,,339669,51.66131,10.7573,1,
Benneckenstein Bek_Klb 014 P14,339669,660165,51.66131,10.7573,,
Benneckenstein Bek_Klb 015 P15,,490859,51.66132,10.76184,1,
Benneckenstein Bek_Klb 015 P15,490859,20774,51.66132,10.76184,,
Benneckenstein Bek_Klb 016 P16,,18618,51.66013,10.76516,1,
Benneckenstein Bek_Klb 016 P16,18618,456700,51.66013,10.76516,,
Benneckenstein Benneckenstein Gleis 1,,60607,51.673645,10.714933,1,
Benneckenstein Benneckenstein Gleis 1,60607,440741,51.673645,10.714933,,
Benneckenstein Benneckenstein Gleis 2,,261324,51.673733,10.714885,1,
Benneckenstein Benneckenstein Gleis 2,261324,561521,51.673733,10.714885,,
Benneckenstein Klb_Sh 001 P1,,516540,51.65627,10.76067,1,
Benneckenstein Klb_Sh 001 P1,516540,75866,51.65627,10.76067,,
Benneckenstein Klb_Sh 002 P2,,159811,51.65153,10.75945,1,
Benneckenstein Klb_Sh 002 P2,159811,355637,51.65153,10.75945,,
Benneckenstein Klb_Sh 003 P3,,426603,51.64468,10.77024,1,
Benneckenstein Klb_Sh 003 P3,426603,119504,51.64468,10.77024,,
Benneckenstein Klb_Sh 004 P4,,54723,51.6435,10.77446,1,
Benneckenstein Klb_Sh 004 P4,54723,114074,51.6435,10.77446,,
Benneckenstein Klb_Sh 005 P5,,53380,51.64182,10.77402,1,
Benneckenstein Klb_Sh 005 P5,53380,93250,51.64182,10.77402,,
Benneckenstein Klb_Sh 006 P6,,322068,51.64323,10.78066,1,
Benneckenstein Klb_Sh 006 P6,322068,268576,51.64323,10.78066,,
Benneckenstein Klb_Sh 007 P7,,85694,51.64155,10.78485,1,
Benneckenstein Klb_Sh 007 P7,85694,653390,51.64155,10.78485,,
Benneckenstein Kälberbruch Gleis 1,,257402,51.6583,10.76397,1,
Benneckenstein Kälberbruch Gleis 1,257402,486775,51.6583,10.76397,,
Bennemühlen,,537463,52.58023,9.727569,1,
Bennemühlen,537463,264924,52.580994,9.726836,,
Bennewitz,,333700,51.355927,12.70843,1,
Bennewitz,333700,13017,51.355927,12.70843,,
Bennigsen,139650,363014,52.240734,9.666376,,
Bennigsen Bahnhof,,139650,52.24016,9.665342,1,
Benningen (N),,625874,48.943794,9.244302,1,
Benningen(Neckar),625874,271354,48.943615,9.244504,,
Bennungen,59712,159360,51.464005,11.122989,,
Bennungen (Südharz) (Bus),,59712,51.461647,11.118379,1,
Benshausen,,615764,50.65692,10.602158,1,
Benshausen,615764,676567,50.65701,10.602208,,
Bensheim,398936,145603,49.681328,8.616717,,
"Bensheim, Bahnhof",,398936,49.68095,8.616766,1,
Bensheim-Auerbach,409872,671500,49.701557,8.613366,,
Berbisdorf,155842,420026,51.186195,13.725065,,
Berbisdorf Anbau,,252204,51.198017,13.727327,1,
Berbisdorf Anbau,252204,105980,51.19803,13.727362,,
Berbisdorf Anbau,252204,636195,51.19777,13.72739,,
Berbisdorf Hp,,155842,51.186512,13.725215,1,
Berbisdorf Hp,155842,450411,51.186558,13.725224,,
Berchtesgaden Hbf,,183285,47.626686,12.999053,1,
Berchtesgaden Hbf,183285,609321,47.626686,12.999058,,
Berg am Laim,,152671,48.135178,11.633408,1,
Berg(CH),,355832,47.58249,9.173922,1,
Berg(CH),355832,283111,47.58249,9.173922,,
Berg(Pfalz),562413,479056,48.980675,8.212761,,
"Berg, Bahnhof",,562413,48.980827,8.213018,1,
Berga (Elster),,115358,50.74719,12.158869,1,
Berga(Elster),115358,433365,50.74719,12.158865,,
Berga-Kelbra,,68970,51.45206,11.014813,1,
Berga-Kelbra,68970,461342,51.45206,11.014813,,
Bergen (Oberbay),,73088,47.82527,12.592844,1,
Bergen Bahnhof,,655696,54.420822,13.418737,1,
Bergen auf Rügen,655696,425229,54.4205,13.417821,,
Bergen(Oberbay),73088,160925,47.82527,12.592846,,
Bergenweiler,368203,131245,48.576298,10.272879,,
Bergenweiler Bahnhof,,368203,48.57594,10.27325,1,
Berghausen (Baden),,72673,49.00575,8.530483,1,
Berghausen (Pfalz) Bahnhof,,272488,49.294796,8.405572,1,
Berghausen Am Stadion,,21131,49.00262,8.536115,1,
Berghausen Am Stadion,21131,410429,49.002552,8.536012,,
Berghausen Hummelberg,,110031,49.009808,8.526881,1,
Berghausen Hummelberg,110031,329614,49.00981,8.526807,,
Berghausen Pfinzbrücke,,458471,49.006516,8.520871,1,
Berghausen Pfinzbrücke,458471,638477,49.006527,8.520911,,
Berghausen(Baden),72673,131524,49.00569,8.530589,,
Berghausen(Pfalz),272488,132463,49.29545,8.406173,,
Bergheim Bf,,488761,50.9517,6.646293,1,
Bergheim Glesch Bf,,33200,50.971264,6.589628,1,
Bergheim Paffendorf Bf,,180045,50.96169,6.607001,1,
Bergheim Quadrath-Ichendorf Bf,,282097,50.937767,6.686529,1,
Bergheim Zieverich Bf,,595780,50.949276,6.62574,1,
Bergheim(Erft),488761,59282,50.951706,6.646302,,
Bergisch Gladbach (S),,354573,50.99146,7.124548,1,
Bergisch Gladbach (S),354573,234123,50.990788,7.123964,,
Bergisch Gladbach Duckterath (S),,607753,50.984814,7.103491,1,
Bergsdorf,228644,302925,52.93652,13.260729,,1
"Bergsdorf, Bahnhof",,228644,52.936523,13.260724,1,
Bergtheim,,201867,49.899296,10.076474,1,
Bergtheim,201867,140450,49.8993,10.076473,,
Bergwitz,,81584,51.803696,12.576213,1,
Bergwitz,81584,637674,51.803696,12.576213,,
Beringen Bad Bf,,617976,47.694897,8.574616,1,
Beringen Bad Bf,617976,154475,47.694897,8.574616,,
Beringerfeld,,602243,47.69531,8.592771,1,
Beringerfeld,602243,530413,47.69531,8.592771,,
Beringhausen,393685,501803,51.407772,8.751414,,
"Beringhausen, Bahnhof",,393685,51.40777,8.751414,1,
Beringstedt,,502726,54.113667,9.537501,1,
Beringstedt,502726,66059,54.113667,9.537501,,
Berkenbrück,471273,211317,52.357075,14.166475,,1
Berkenbrück,471273,227988,52.357147,14.166477,,2
"Berkenbrück (LOS), Bahnhof",,471273,52.357185,14.165226,1,
Berlin Alexanderplatz,557739,10132,52.52151,13.411127,,2
Berlin Alexanderplatz,557739,16317,52.52145,13.411009,,1
Berlin Central Station (FlixTrain),190061,617075,52.525063,13.369438,,
Berlin Friedrichstraße,47220,198961,52.520126,13.386598,,1
Berlin Friedrichstraße,47220,29558,52.520363,13.38673,,4
Berlin Friedrichstraße,47220,580798,52.520275,13.386683,,3
Berlin Friedrichstraße,47220,599810,52.520214,13.386653,,2
Berlin Gesundbrunnen,433436,292656,52.54869,13.390501,,7
Berlin Gesundbrunnen,433436,514896,52.548485,13.390691,,9
Berlin Gesundbrunnen,433436,568371,52.548794,13.3904,,6
Berlin Gesundbrunnen,433436,582982,52.548573,13.390519,,8
Berlin Gesundbrunnen,433436,62016,52.548885,13.39039,,5
Berlin Gesundbrunnen,433436,664598,52.548386,13.390704,,10
Berlin Hbf,190061,252903,52.52488,13.369627,,12
Berlin Hbf,190061,35575,52.524788,13.369667,,11
Berlin Hbf,190061,36555,52.52496,13.368911,,1
Berlin Hbf,190061,494830,52.524967,13.369527,,13
Berlin Hbf,190061,599744,52.52507,13.369501,,14
Berlin Jungfernheide,340979,331544,52.53029,13.299397,,4
Berlin Jungfernheide,340979,534569,52.530193,13.299447,,3
Berlin Ostbahnhof,590380,13333,52.510254,13.435024,,3
Berlin Ostbahnhof,590380,192857,52.510178,13.434942,,2
Berlin Ostbahnhof,590380,245790,52.510414,13.435172,,6
Berlin Ostbahnhof,590380,406861,52.510242,13.434586,,1
Berlin Ostbahnhof,590380,477121,52.510475,13.43524,,7
Berlin Ostkreuz,303047,229966,52.503067,13.469961,,14
Berlin Ostkreuz,303047,26992,52.503536,13.469226,,7
Berlin Ostkreuz,303047,292435,52.50304,13.468615,,2
Berlin Ostkreuz,303047,406794,52.502907,13.468553,,1
Berlin Ostkreuz,303047,449614,52.503567,13.469241,,8
Berlin Ostkreuz,303047,534747,52.503128,13.469622,,13
Berlin Potsdamer Platz,495253,102184,52.50938,13.375988,,
Berlin Südkreuz,18072,457280,52.475433,13.365603,,7
Berlin Südkreuz (FlixTrain),18072,83768,52.475685,13.365562,,
Berlin Zoologischer Garten,393645,235891,52.50768,13.332686,,3
Berlin Zoologischer Garten,393645,276329,52.507717,13.332555,,4
Berlin Zoologischer Garten,393645,350963,52.50762,13.332927,,1
Berlin Zoologischer Garten,393645,536097,52.507652,13.332804,,2
"Berlin, Staaken Bhf",,175785,52.537697,13.142156,1,
Berlin-Charlottenburg,61475,267874,52.504097,13.301861,,2
Berlin-Charlottenburg,61475,529801,52.504032,13.301903,,1
Berlin-Charlottenburg,61475,537802,52.50424,13.301782,,4
Berlin-Charlottenburg,61475,60361,52.504173,13.301819,,3
Berlin-Hohenschönhausen,66086,239222,52.566013,13.512471,,3
Berlin-Hohenschönhausen,66086,488935,52.56599,13.512415,,4
Berlin-Karow,198166,81595,52.61519,13.469526,,1
Berlin-Lichtenberg,354182,118720,52.510002,13.49649,,17
Berlin-Lichtenberg,354182,181454,52.51037,13.497302,,16
Berlin-Lichtenberg,354182,241223,52.510277,13.497433,,15
Berlin-Lichtenberg,354182,245394,52.51009,13.496357,,20
Berlin-Lichtenberg,354182,438439,52.510124,13.496304,,21
Berlin-Lichtenberg,354182,607980,52.510216,13.496164,,22
Berlin-Lichterfelde Ost,335591,36686,52.4296,13.328701,,3
Berlin-Lichterfelde Ost,335591,436568,52.429577,13.328766,,4
Berlin-Mahlsdorf,528024,333595,52.511917,13.610735,,5
Berlin-Schöneweide,490273,210837,52.45469,13.509638,,2
Berlin-Schöneweide,490273,345450,52.45462,13.509517,,1
Berlin-Spandau,532712,380537,52.534485,13.1971,,6
Berlin-Spandau,532712,504826,52.534542,13.197124,,5
Berlin-Spandau,532712,597724,52.534668,13.197191,,3
Berlin-Spandau,532712,76341,52.5346,13.197163,,4
Berlin-Spandau (FlixTrain),532712,611301,52.534584,13.198093,,
Berlin-Staaken,175785,435922,52.53766,13.141303,,1
Berlin-Staaken,175785,6086,52.537758,13.141315,,2
Berlin-Wannsee,593022,179849,52.42173,13.181534,,8
Berlin-Wannsee,593022,261491,52.42135,13.180446,,6
Berlin-Wannsee,593022,71353,52.421402,13.180358,,5
Berlingen(CH),,530196,47.673214,9.022023,1,
Berlingen(CH),530196,641736,47.673214,9.022023,,
Bermatingen-Ahausen,471844,650260,47.730488,9.345157,,
Bermatingen-Ahausen Bahnhof,,471844,47.730354,9.345533,1,
Bernau a Chiemsee,183504,43922,47.816483,12.380957,,
Bernau am Chiemsee,,183504,47.81635,12.380509,1,
Bernau(b Berlin),554399,112076,52.675426,13.591859,,4
Bernau(b Berlin),554399,495122,52.67533,13.592016,,5
Bernburg Hbf,,382200,51.79612,11.751455,1,
Bernburg Hbf,382200,644408,51.79612,11.751455,,
Bernburg-Roschwitz,,366384,51.7811,11.7593,1,
Bernburg-Roschwitz,366384,81475,51.7811,11.7593,,
Bernburg-Strenzfeld,,341972,51.819893,11.717645,1,
Bernburg-Strenzfeld,341972,245720,51.819893,11.717645,,
Bernburg-Waldau,,470807,51.805782,11.723312,1,
Bernburg-Waldau,470807,202637,51.805782,11.723312,,
Berne,,10237,53.18381,8.475525,1,
Berne,10237,651128,53.18381,8.475525,,
Bernried,,465130,47.861614,11.28381,1,
Bernried,465130,385159,47.861385,11.283658,,
Bernterode,,426665,51.405468,10.479947,1,
Bernterode,426665,270982,51.405464,10.479945,,
Bersenbrück,,537368,52.551117,7.94258,1,
Bersenbrück,537368,190520,52.551178,7.942662,,
Berthelsdorf(Erzgeb),344657,104151,50.87559,13.363608,,
Berthelsdorf(Erzgebirge) Ort,5913,610035,50.86789,13.380147,,
"Berthelsdorf, Bahnhof",,344657,50.87513,13.36376,1,
"Berthelsdorf, Ort",,5913,50.86824,13.379867,1,
Bertsdorf,493001,32170,50.868446,14.746641,,
Berzhahn,17780,290631,50.53989,8.006031,,
Berzhahn Bf,,17780,50.539883,8.006019,1,
Besançon Franche-Comté TGV,,255837,47.307564,5.952675,1,
Besançon Franche-Comté TGV,255837,36896,47.307564,5.952675,,
Besch,,289067,49.50719,6.372205,1,
Besch,289067,305295,49.507095,6.372307,,2
Besch,289067,93953,49.507072,6.372142,,1
Besigheim,,53924,48.997604,9.136738,1,
Besigheim,53924,438673,48.997723,9.136645,,
Besseringen,,47452,49.47597,6.60256,1,
Besseringen,47452,232307,49.476124,6.602138,,2
Besseringen,47452,488723,49.476097,6.602098,,1
"Bestenheid, Bahnhof Glashütte",,125641,49.786167,9.500151,1,
Bestensee,560577,255300,52.241615,13.635126,,2
"Bestensee, Bahnhof",,560577,52.24219,13.634776,1,
Bestwig,493538,620432,51.36191,8.397839,,
"Bestwig, Bahnhof",,493538,51.36191,8.397838,1,
Bettmannsäge,,44232,48.99769,13.186271,1,
Bettmannsäge,44232,235878,48.99769,13.186274,,
Betzdorf Bf,,506829,50.78929,7.870041,1,
Betzdorf(LUX),,543404,49.68889,6.348989,1,
Betzdorf(LUX),543404,437298,49.68889,6.348989,,
Betzdorf(Sieg),506829,416240,50.789295,7.87005,,
Betzingen Bahnhof,,400235,48.49645,9.175482,1,
Beucha,,185346,51.32362,12.573133,1,
Beucha,185346,429785,51.32362,12.573133,,
Beuchow,,662423,54.36212,13.502454,1,
Beuchow,662423,214959,54.36212,13.502454,,
Beuggen,534012,525142,47.581905,7.810915,,
Beuggen Bahnhof,,534012,47.58192,7.810923,1,
Beuna(Geiseltal),,591475,51.32281,11.962762,1,
Beuna(Geiseltal),591475,323084,51.32281,11.962762,,
Beuren,,216417,51.37713,10.279034,1,
Beuren,216417,237831,51.37713,10.279034,,
Beuron,202127,188139,48.04879,8.97189,,
Beuron Bahnhof,,202127,48.048878,8.972131,1,
Beutelsbach,,446725,48.810387,9.385517,1,
Beutelsbach,446725,562989,48.81029,9.386029,,
Beutersitz,456236,293656,51.590202,13.359682,,2
Beutersitz,456236,552825,51.590218,13.36063,,1
"Beutersitz, Bahnhof",,456236,51.590096,13.360627,1,
"Bev.-Wehrden, Bahnhof",,469246,51.709614,9.382553,1,
Beverungen-Wehrden,469246,414150,51.709614,9.382552,,
Bexbach,,249152,49.34571,7.254092,1,
Bexbach,249152,144393,49.34572,7.254106,,1
Bexbach,249152,288089,49.345684,7.254121,,2
Beyendorf,,225432,52.061146,11.63105,1,
Beyendorf,225432,261684,52.060818,11.630909,,1
Bezdez,,605667,50.516277,14.729532,1,
Bezdez,605667,554066,50.516117,14.729343,,
"Bi-Oldentrup, Bahnhof",,673071,52.010277,8.590814,1,
"Bi-Senne, Bahnhof",,336127,51.96512,8.520332,1,
"Bi-Sennestadt, Bahnhof",,374144,51.940582,8.567475,1,
"Bi-Ubbedissen, Bahnhof",,581899,51.98845,8.63758,1,
Bi-Windelsbleiche Bahnhof,,378368,51.957005,8.531381,1,
Bibelöd,,239713,47.771515,12.64668,1,
Bibelöd,239713,166009,47.771694,12.646506,,
Biberach Bahnhof,,190070,48.338463,8.032798,1,
Biberach Süd,,294141,48.08692,9.803647,1,
Biberach ZOB/Bahnhof,,144753,48.101456,9.792795,1,
Biberach(Baden),190070,94464,48.338387,8.032762,,
Biberach(Riß),144753,607913,48.101845,9.793127,,
Biberach(Riß) Süd,294141,273257,48.087017,9.803236,,
Biblis,637588,486620,49.68888,8.450413,,
"Biblis, Bahnhof",,637588,49.688953,8.450497,1,
Bibra,382066,17289,50.467876,10.439105,,
Bibra (Bushaltestelle),,382066,50.46792,10.439078,1,
Bichl,,595468,47.72331,11.408883,1,
Bichl,595468,562751,47.723816,11.408769,,
Bichlbach Almkopfbahn,,498310,47.42763,10.776707,1,
Bichlbach Almkopfbahn,498310,152690,47.42763,10.776707,,
Bichlbach-Berwang,,254527,47.421356,10.793384,1,
Bichlbach-Berwang,254527,656111,47.421356,10.793384,,
Bickenbach Bahnhof,,638893,49.760124,8.604098,1,
Bickenbach(Bergstr),638893,273042,49.76038,8.603497,,
Biebergemünd-Wirtheim Bahnhof,,594627,50.225807,9.258448,1,
Biebesheim,58566,668376,49.78198,8.473978,,
Biebesheim (Rhein) Bahnhof,,58566,49.781975,8.474009,1,
Biedenkopf,652703,274125,50.90894,8.530353,,
Biedenkopf Bahnhof,,652703,50.909157,8.530648,1,
Biedenkopf Campus,357216,67566,50.915127,8.517706,,
Biedenkopf Wissenscampus,,357216,50.914906,8.519072,1,
Biedenkopf-Wallau (Lahn) Bahnhof,,126089,50.92469,8.471301,1,
Biederitz,,442763,52.15271,11.716466,1,
Biederitz,442763,405096,52.15271,11.716466,,
Bielefeld Hbf,,525944,52.029263,8.53272,1,
Bielefeld Hbf,525944,567505,52.029263,8.532722,,
Bielefeld Ost,231418,343930,52.024014,8.559416,,
"Bielefeld, Brackwede Bahnhof",,256332,51.998024,8.500308,1,
"Bielefeld, Brake Bahnhof",,135941,52.069656,8.604908,1,
"Bielefeld, Ostbahnhof",,231418,52.02401,8.559418,1,
"Bielefeld, Quelle Bahnhof",,373281,52.00049,8.460765,1,
"Bielefeld, Quelle-Kupferheide Bahnhof",,599077,51.994102,8.476395,1,
Bielefeld-Brackwede,256332,450921,51.99738,8.498426,,
Bielefeld-Senne,336127,556339,51.96512,8.520335,,
Bielefeld-Sennestadt,374144,494851,51.940582,8.567477,,
Bielefeld-Windelsbleiche,378368,81273,51.95701,8.531378,,
Biendorf,,619298,51.756863,11.856411,1,
Biendorf,619298,595857,51.756863,11.856411,,
Bienenbüttel,,27308,53.14209,10.484754,1,
Bienenbüttel,27308,208591,53.142128,10.484714,,
Bienenmühle,130832,661026,50.7404,13.528533,,
"Bienenmühle, Bahnhof",,130832,50.740005,13.528493,1,
Bierbach,,135345,49.2619,7.28182,1,
Bierbach,135345,440899,49.261917,7.281188,,1
Bieren-Rödinghausen,389935,250237,52.239277,8.516964,,
Bieringen,208553,390739,48.449028,8.860915,,
Bieringen (Neckar) Bahnhof,,208553,48.44908,8.860838,1,
Biersdorf-Ort(Ww),,226674,50.748272,7.949036,1,
Biersdorf-Ort(Ww),226674,606634,50.748272,7.949036,,
Biesenthal,656458,258469,52.755936,13.675252,,1
Biesenthal,656458,446771,52.75598,13.67514,,2
"Biesenthal, Bahnhof",,656458,52.755535,13.674758,1,
Biessenhofen,,277759,47.829956,10.640473,1,
Biessenhofen,277759,659201,47.829956,10.640467,,
Bietigheim,,101629,48.94795,9.137214,1,
Bietigheim (Baden),,325326,48.910442,8.257925,1,
Bietigheim(Baden),325326,358542,48.910587,8.258045,,
Bietigheim-Bissingen,101629,624275,48.947933,9.137557,,
Bietingen,53262,424608,47.74402,8.738915,,
Bietingen Bahnhof,,53262,47.744087,8.738757,1,
Bigge,395004,169979,51.35828,8.475253,,
"Bigge, Bahnhof",,395004,51.358276,8.475254,1,
Bila Tremesna,,573629,50.451614,15.733408,1,
Bila Tremesna,573629,354876,50.451614,15.733408,,
Bildstock,,257904,49.337322,7.094344,1,
Bildstock,257904,181957,49.33724,7.094113,,1
Bildstock,257904,384093,49.33722,7.094168,,2
Bilfingen,423107,483521,48.948875,8.620341,,
Bilfingen Bahnhof,,423107,48.948723,8.620458,1,
Billenhausen,,165707,48.27556,10.358159,1,
Billenhausen,165707,313868,48.275562,10.358162,,
Billerbeck,145937,8805,51.981342,7.297482,,
"Billerbeck, Bahnhof",,145937,51.98134,7.297482,1,
Bily Kostel nad Nisou,,477460,50.821194,14.917889,1,
Bily Kostel nad Nisou,477460,241349,50.821194,14.917889,,
Bily Potok p.Smrkem,,344115,50.875923,15.206142,1,
Bily Potok p.Smrkem,344115,144170,50.87603,15.20625,,
Binau,257606,164303,49.37259,9.083631,,
"Binau, Bahnhof",,257606,49.372032,9.083872,1,
Bindfelde,,443345,52.58456,11.898035,1,
Bindfelde,443345,645198,52.58456,11.898035,,
Bindlach,,400892,49.98022,11.60344,1,
Bindlach,400892,352696,49.98022,11.603442,,
Bingen(Rhein) Hbf,564016,480104,49.968727,7.884263,,
Bingen(Rhein) Stadt,513167,229233,49.969746,7.902985,,
"Bingen, Hauptbahnhof",,564016,49.96874,7.883543,1,
"Bingen, Stadtbahnhof",,513167,49.9698,7.902731,1,
Bingen-Gaulsheim,,508783,49.967064,7.951114,1,
Bingen-Gaulsheim,508783,111414,49.96707,7.950983,,
Binolen,354732,437060,51.371983,7.859433,,
Binz Kleinbahnhof-Ost,,386742,54.392967,13.610411,1,
Binz LB,386742,476008,54.392784,13.609943,,
Birach,72627,673640,48.349518,8.080366,,
Birach Bahnhof,,72627,48.349503,8.080319,1,
Birkelbach,539820,284889,51.020695,8.252865,,
Birkelbach Bf,,539820,51.020695,8.252867,1,
Birkenau,410122,31233,49.56104,8.708359,,
"Birkenau, Bahnhof",,410122,49.561005,8.708241,1,
Birkenbringhausen,,259272,51.022373,8.744887,1,
Birkenbringhausen,259272,130532,51.022373,8.744887,,
Birkenfeld Bahnhof,,112041,48.87373,8.645234,1,
Birkenfeld(Enz),112041,255071,48.873913,8.645278,,
Birkengrund,221427,346901,52.31591,13.271822,,1
Birkengrund,221427,88769,52.31588,13.272179,,2
Birkenmoor,,330751,51.639397,10.877967,1,
Birkenmoor,330751,274197,51.639656,10.876323,,
Birkungen,,639536,51.366314,10.330735,1,
Birkungen,639536,323682,51.36631,10.330736,,
Birresborn,493930,678956,50.17641,6.628884,,
"Birresborn, Bahnhof",,493930,50.175823,6.628642,1,
Bischheim-Gersdorf,90513,202571,51.228416,14.045516,,
Bischheim-Gersdorf Bahnhof,,90513,51.228237,14.045627,1,
Bischofshofen,,367121,47.41786,13.219888,1,
Bischofshofen,367121,495632,47.41786,13.219888,,
Bischofswerda,283685,108649,51.125584,14.186144,,
Bischofswerda Bahnhof,,283685,51.12564,14.185836,1,
Bischofswiesen,,567939,47.65189,12.960138,1,
Bischofswiesen,567939,664285,47.65189,12.960141,,
Bischweier,255540,237594,48.832153,8.277543,,
Bischweier (Baden),,255540,48.832176,8.277517,1,
Bischwiller,,377136,48.76552,7.851273,1,
Bischwiller,377136,197091,48.76552,7.851273,,
Bisingen,506689,118623,48.31277,8.921035,,
Bisingen Bahnhof,,506689,48.312946,8.921268,1,
Bissendorf,69661,318589,52.522705,9.748191,,
Bissendorf Bahnhof,,69661,52.52304,9.748437,1,
Bitburg-Erdorf,667152,242518,49.998684,6.570958,,
"Bitburg-Erdorf, Bahnhof",,667152,49.99835,6.5715,1,
Bittelbronn,315359,505081,48.444386,8.589448,,
Bittelbronn Bahnhof,,315359,48.444435,8.588658,1,
Bitterfeld,,325594,51.62286,12.31685,1,
Bitterfeld,325594,182310,51.62286,12.31685,,
Bitzfeld,,184190,49.18737,9.453439,1,
Bitzfeld,184190,358674,49.187233,9.453222,,
Blaibach (Oberpf),,303416,49.164024,12.807919,1,
Blaibach(Oberpf),303416,240046,49.16403,12.807925,,
Blaichach (Allgäu),,174595,47.54374,10.258796,1,
Blaichach(Allgäu),174595,18838,47.54374,10.258796,,
Blankenbach,,212641,50.065205,9.230064,1,
Blankenbach,212641,173270,50.065205,9.230064,,
Blankenberg Bhf,,324981,53.771973,11.716475,1,
Blankenberg(Meckl),324981,191381,53.772305,11.71529,,
Blankenberg(Sieg),296988,88928,50.768475,7.348499,,
Blankenburg(Harz),,219561,51.795822,10.961184,1,
Blankenburg(Harz),219561,331335,51.795822,10.961184,,
Blankenfelde(Teltow-Fläming),430116,442172,52.336926,13.416088,,
Blankenheim(Sangerhausen),,42174,51.50278,11.426004,1,
Blankenheim(Sangerhausen),42174,159926,51.50278,11.426004,,
Blankenloch,,225496,49.06629,8.464843,1,
Blankenloch,225496,253789,49.06653,8.464729,,
Blankenloch Kirche,,52354,49.064808,8.471428,1,
Blankenloch Kirche,52354,105327,49.065132,8.471544,,
Blankenloch Kirche,52354,191228,49.064484,8.47132,,
Blankenloch Mühlenweg,,532797,49.06871,8.474599,1,
Blankenloch Mühlenweg,532797,154977,49.068607,8.47432,,
Blankenloch Mühlenweg,532797,518861,49.06883,8.474805,,
Blankenloch Nord,,403858,49.07327,8.467709,1,
Blankenloch Nord,403858,249561,49.074966,8.467538,,
Blankenloch Nord,403858,264173,49.073265,8.46787,,
Blankenloch Nord,403858,481072,49.07328,8.467367,,
Blankenloch Süd,,652083,49.057407,8.46708,1,
Blankenloch Süd,652083,412432,49.05702,8.466765,,
Blankenloch Süd,652083,582721,49.05765,8.467268,,
Blankenloch Tolna-Platz,,565679,49.060345,8.469397,1,
Blankenloch Tolna-Platz,565679,150754,49.060654,8.469604,,
Blankenloch Tolna-Platz,565679,483642,49.06007,8.469227,,
Blankensee (Meckl),,429681,53.40803,13.26323,1,
Blankensee(Meckl),429681,142713,53.408173,13.262907,,
Blankenstein (Saale),,337816,50.401245,11.698098,1,
Blankenstein(Saale),337816,528586,50.40114,11.69806,,
Blaubeuren,404776,641215,48.403816,9.791979,,
Blaubeuren Bahnhof,,404776,48.40395,9.79196,1,
Blaufelden,68915,290438,49.296234,9.96768,,
Blaufelden Bahnhof,,68915,49.296307,9.96785,1,
Blaustein,129664,138785,48.414597,9.919326,,
Blaustein Bahnhof,,129664,48.414608,9.919341,1,
Blechhammer (Thüringen),,41624,50.396976,11.203171,1,
Blechhammer(Thür),41624,109460,50.396835,11.203156,,
Bleibach,76121,572166,48.124092,8.004777,,
Bleibach Bahnhof,,76121,48.12403,8.004995,1,
Bleichenbach(Oberh),366578,263367,50.320335,9.051582,,
Bleicherode Ost,,68846,51.453175,10.608889,1,
Bleicherode Ost,68846,257765,51.4533,10.609188,,
Blens,,337046,50.660248,6.486442,1,
Blens,337046,232484,50.660248,6.486442,,
Blieskastel-Lautzkirchen,,98272,49.249195,7.258186,1,
Blieskastel-Lautzkirchen,98272,456010,49.24917,7.258215,,1
Blindheim,,295283,48.645096,10.617925,1,
Blindheim,295283,480161,48.645096,10.617933,,
Blizevedly,,511146,50.613632,14.395197,1,
Blizevedly,511146,660236,50.613647,14.395422,,
Bludenz,,381405,47.154724,9.814564,1,
Bludenz,381405,11677,47.154724,9.814564,,
Bludenz Brunnenfeld,,579040,47.13631,9.8389,1,
Bludenz Brunnenfeld,579040,550863,47.13631,9.8389,,
Bludenz-Moos,,313337,47.142067,9.831148,1,
Bludenz-Moos,313337,119988,47.142067,9.831148,,
"Blumberg (BAR), Bahnhof",,564012,52.60499,13.611157,1,
"Blumberg (BAR), Rehhahn Bhf",,37393,52.596806,13.592263,1,
Blumberg Riedöschingen,,323531,47.855633,8.607621,1,
Blumberg Zollhaus Bf,,31924,47.837788,8.558097,1,
Blumberg(b Berlin),564012,490356,52.605,13.611215,,1
Blumberg-Rehhahn,37393,665181,52.596794,13.592281,,1
Blumberg-Riedöschingen,323531,459491,47.85554,8.607543,,
Blumberg-Zollhaus,31924,75591,47.8378,8.557175,,
Blumenau,313492,623758,50.67124,13.291014,,
"Blumenau, Bahnhof",,313492,50.67013,13.292946,1,
Blumenhagen,437647,26997,53.528328,13.87204,,
Blumenhagen Bahnhof,,437647,53.5285,13.872961,1,
Blumenthal(Mark),323541,511734,53.076553,12.334002,,1
"Blumenthal, Bahnhof",,323541,53.07655,12.333962,1,
Blönsdorf,383960,283046,51.955475,12.895891,,1
Blönsdorf,383960,443460,51.955544,12.89583,,2
"Blönsdorf, Bahnhof",,383960,51.955513,12.895806,1,
Bobenheim,344750,353414,49.58814,8.35032,,
"Bobenheim, Bahnhof",,344750,49.58787,8.350326,1,
Bobingen,,66526,48.266373,10.837886,1,
Bobingen,66526,428618,48.266373,10.837891,,
Bobstadt,266729,188511,49.66325,8.451786,,
"Bobstadt, Bahnhof",,266729,49.662594,8.452015,1,
Bocholt,254709,367252,51.83412,6.620426,,
"Bocholt, Bahnhof",,254709,51.83412,6.620422,1,
Bochum Dahlhausen,,519279,51.42698,7.142622,1,
Bochum Ehrenfeld,,607566,51.472713,7.210606,1,
Bochum Hamme,,281172,51.491264,7.200985,1,
Bochum Hbf,,361660,51.479465,7.223335,1,
Bochum Hbf,361660,546179,51.478607,7.223275,,
Bochum Höntrop,,181894,51.460266,7.154632,1,
Bochum Langendreer,,194210,51.477535,7.323767,1,
Bochum Langendreer West,,563389,51.478348,7.30245,1,
Bochum Riemke,,316516,51.51783,7.205297,1,
Bochum Wattenscheid Bf,,127690,51.474037,7.14087,1,
Bochum West,76347,566023,51.48146,7.211223,,
Bochum West Bf,,76347,51.48117,7.211612,1,
Bochum-Dahlhausen,519279,652980,51.426357,7.140842,,
Bochum-Ehrenfeld,607566,86909,51.47212,7.20915,,
Bochum-Hamme,281172,468621,51.491486,7.200935,,
Bochum-Langendreer,194210,148497,51.477993,7.323645,,
Bochum-Langendreer West,563389,25013,51.47803,7.304327,,
Bochum-Riemke,316516,508737,51.5178,7.205275,,
"Bockenheim, Bahnhof",,15085,49.606922,8.188036,1,
Bockenheim-Kindenheim,15085,91761,49.606953,8.188033,,
"Bockum-Hövel, Bahnhof",,575178,51.704807,7.774541,1,
Bodelsberg,,264179,47.678112,10.411097,1,
Bodelsberg,264179,324524,47.678112,10.411092,,
Bodelshausen,397879,660171,48.38337,8.990601,,
Bodelshausen Bahnhof,,397879,48.3835,8.990744,1,
Bodenburg,643444,358112,52.03112,10.00133,,
Bodenburg/Bahnhof,,643444,52.032997,10.003989,1,
Bodenfelde,,629703,51.637295,9.561612,1,
Bodenfelde,629703,107012,51.63735,9.561613,,
Bodenfelde,629703,362484,51.637302,9.561721,,
Bodenfelde,629703,649632,51.637238,9.561501,,
Bodenheim,608784,170455,49.929585,8.312491,,
"Bodenheim, Bahnhof",,608784,49.930042,8.311617,1,
Bodenmais,,436287,49.070503,13.101102,1,
Bodenmais,436287,308381,49.070503,13.101102,,
Bodenrode,,327023,51.393528,10.208548,1,
Bodenrode,327023,434413,51.393528,10.20855,,
Bodenwöhr Nord,,554408,49.278385,12.325955,1,
Bodenwöhr Nord,554408,604212,49.27838,12.325948,,
Bogen,,414860,48.910595,12.686143,1,
Bogen,414860,98908,48.910595,12.686141,,
Bohmte,,443586,52.361576,8.307491,1,
Bohmte,443586,160424,52.361572,8.307527,,
Boisheim,257600,533683,51.274323,6.274591,,
Bokholt,,476439,53.78527,9.713876,1,
Bokholt,476439,62638,53.786095,9.716833,,
Bologna Centrale,,148884,44.50614,11.343411,1,
Bologna Centrale,148884,346611,44.50614,11.343411,,
Bolzano/Bozen,,62354,46.496376,11.358791,1,
Bolzano/Bozen,62354,53916,46.496376,11.358791,,
Bondorf,,200864,48.52327,8.827879,1,
Bondorf(b Herrenberg),200864,495579,48.523552,8.827662,,
Bonn Bad Godesberg Bf,,64660,50.683918,7.159555,1,
Bonn Beuel Bf,,15777,50.738476,7.127656,1,
Bonn Duisdorf Bf,,167551,50.71647,7.042549,1,
Bonn Duisdorf Helmholtzstr.,,363136,50.721844,7.05261,1,
Bonn Endenich Nord Bf,,132888,50.735588,7.062204,1,
Bonn Gronau Un Campus Bf,,195819,50.714542,7.117999,1,
Bonn Hbf,,102949,50.732006,7.097131,1,
Bonn Hbf,102949,169683,50.73187,7.096987,,
Bonn Helmholtzstraße,363136,663489,50.721844,7.052615,,
Bonn Lannesdorf Mehlem Bf,,640687,50.66916,7.18133,1,
Bonn Oberkassel Bf,,25010,50.715073,7.159303,1,
Bonn UN Campus,195819,159518,50.71454,7.11801,,
Bonn-Bad Godesberg,64660,546321,50.683926,7.159555,,
Bonn-Beuel,15777,48975,50.738728,7.126748,,
Bonn-Duisdorf,167551,9907,50.716476,7.042548,,
Bonn-Endenich Nord,132888,378743,50.73559,7.062211,,
Bonn-Mehlem,640687,231278,50.66915,7.181342,,
Bonn-Oberkassel,25010,252969,50.715073,7.1593,,
Bookholzberg,,328220,53.099087,8.532594,1,
Bookholzberg,328220,519326,53.099125,8.532596,,
Boostedt,,254904,54.017944,10.016186,1,
Boostedt,254904,316443,54.017727,10.016196,,
Bopfingen,520760,675528,48.855152,10.351707,,
"Bopfingen, Bahnhof",,520760,48.85524,10.351925,1,
Boppard Bad Salzig Bf,,125926,50.205254,7.635464,1,
Boppard Buchholz (Hunsr.) Bf,,378412,50.21078,7.554553,1,
Boppard Hauptbahnhof,,415253,50.231403,7.586084,1,
Boppard Hbf,415253,254401,50.231422,7.586014,,
Boppard Hirzenach Bf,,525982,50.175064,7.648418,1,
Boppard Süd,,446316,50.230186,7.595507,1,
Boppard Süd,446316,355985,50.230198,7.595521,,
Boppard-Bad Salzig,125926,389140,50.20525,7.635481,,
Boppard-Buchholz,378412,405299,50.2108,7.554876,,
Boppard-Fleckertshöhe,,54053,50.197926,7.577889,1,
Boppard-Fleckertshöhe,54053,118238,50.197926,7.577889,,
Boppard-Hirzenach,525982,607575,50.175076,7.648436,,
Bordesholm,,442656,54.174442,10.043901,1,
Bordesholm,442656,151579,54.17447,10.043849,,
Bordesholm,442656,408112,54.174416,10.043952,,
Borek p.Troskami,,164892,50.535522,15.232211,1,
Borek p.Troskami,164892,102127,50.535522,15.232211,,
Boren-Lindaunis Schleibrücke Nord,,36749,54.5844,9.81906,1,
Boren-Lindaunis Schleibrücke Nord,36749,493640,54.5844,9.81906,,
Borgeln,374184,44974,51.598267,8.032033,,
"Borgeln, Bahnhof",,374184,51.598267,8.032035,1,
"Borgh-Oldendorf, Bahnhof",,120603,52.08523,8.266576,1,
"Borgh-Westbarthsn, Bahnhof",,31184,52.096977,8.232637,1,
Borgholzhausen,120603,494469,52.085228,8.266579,,
"Borghorst, Bahnhof",,442694,52.118736,7.397537,1,
Bork(Westf),446414,582270,51.66933,7.456308,,
"Bork, Bahnhof",,446414,51.669327,7.456304,1,
Borken,,513759,51.050873,9.278787,1,
Borken(Hess),513759,435889,51.050686,9.277,,
Borken(Westf),568291,17253,51.848137,6.866589,,
"Borken, Bahnhof",,568291,51.848965,6.865276,1,
Borkheide,34808,114688,52.23069,12.854165,,1
Borkheide,34808,21933,52.23062,12.854238,,2
"Borkheide, Bahnhof",,34808,52.230843,12.85463,1,
Borna(Leipzig),,301980,51.117928,12.486291,1,
Borna(Leipzig),301980,279279,51.117928,12.486291,,
Bornheim Roisdorf Bf,,581510,50.753178,7.01613,1,
Bornheim Sechtem Bf,,642235,50.795708,6.957452,1,
Borovnice,,335103,50.509342,15.604069,1,
Borovnice,335103,326378,50.509342,15.604069,,
Borovnicka,,209358,50.50004,15.658929,1,
Borovnicka,209358,588811,50.50004,15.658929,,
Borsdorf(Hess),51635,477807,50.42941,8.975223,,
Borsdorf(Sachs),,22436,51.345703,12.541165,1,
Borsdorf(Sachs),22436,633042,51.345703,12.541165,,
Bottighofen,,488073,47.640705,9.213104,1,
Bottighofen,488073,324698,47.640705,9.213104,,
Bottrop Hbf,,181151,51.509968,6.936692,1,
Bottrop Hbf,181151,171056,51.50945,6.936684,,
Bottrop-Boy,362904,545836,51.537163,6.967729,,
Bottrop-Boy Bf,,362904,51.53663,6.967854,1,
Bottrop-Vonderort,403927,444583,51.501728,6.912294,,
Bous (Saar),,88010,49.27615,6.792276,1,
Bous(Saar),88010,176840,49.276264,6.792134,,1
Bous(Saar),88010,355689,49.276237,6.79208,,2
Boxberg-Wölchingen,49982,629141,49.485596,9.640048,,
"Boxberg-Wölchingen, Bahnhof",,49982,49.485435,9.640091,1,
Bozikov,,561079,50.67878,14.650085,1,
Bozikov,561079,245148,50.678688,14.649959,,
Brachbach,266014,276003,50.822067,7.941758,,
Brachbach Bf,,266014,50.821983,7.941475,1,
Brachelen,,669576,51.007824,6.231463,1,
Brachelen,669576,246846,51.007824,6.231463,,
Brahmsstraße,,221786,49.0033,12.108904,1,
Brake(Unterweser),,95279,53.32881,8.481282,1,
Brake(Unterweser),95279,157047,53.32873,8.481273,,
Brake(b Bielefeld),135941,475791,52.069653,8.604914,,
Brakel(Höxter),616966,515494,51.712166,9.1832,,
"Brakel, Bahnhof",,616966,51.712166,9.183199,1,
Bramsche,113333,393736,52.41085,7.975054,,
Bramsche(Hase),,113333,52.410847,7.974894,1,
Bramstedt(b Syke),,317938,52.87157,8.785919,1,
Bramstedt(b Syke),317938,161744,52.871544,8.785983,,
Brand Tropical Islands,629824,577767,52.029827,13.721686,,2
Brand Tropical Islands,629824,671938,52.029785,13.721552,,1
"Brand, Tropical Islands Bhf",,629824,52.029922,13.721582,1,
Brandenburg Altstadt,67366,572693,52.412148,12.530161,,1
Brandenburg Hbf,421477,208778,52.400276,12.565075,,2
Brandenburg Hbf,421477,354166,52.400066,12.563807,,5
Brandenburg Hbf,421477,392725,52.400135,12.565197,,4
Brandenburg Hbf,421477,587601,52.40043,12.565258,,1
Brandenburg Hbf,421477,589712,52.40021,12.565134,,3
"Brandenburg, Altstadt Bhf",,67366,52.4121,12.530186,1,
"Brandenburg, Görden Bhf",,665343,52.427574,12.50397,1,
"Brandenburg, Hauptbahnhof",,421477,52.400795,12.566036,1,
"Brandenburg, Kirchmöser Bhf",,438846,52.37535,12.422422,1,
Brandoberndorf,242858,253251,50.43162,8.493816,,
Brannenburg,,125084,47.740776,12.106748,1,
Brannenburg,125084,572846,47.741356,12.106464,,
Braubach,420273,164848,50.27414,7.643187,,
Braubach Bf,,420273,50.274136,7.643172,1,
Braunau/Inn,,237616,48.259125,13.047988,1,
Braunau/Inn,237616,121757,48.259125,13.047988,,
Braunfels-Leun/Braunfels Bahnhof,,300530,50.539806,8.366921,1,
Braunsbedra,,285049,51.28878,11.884594,1,
Braunsbedra,285049,290270,51.28878,11.884594,,
Braunsbedra Pfännerhall,,27763,51.289967,11.902683,1,
Braunsbedra Pfännerhall,27763,347319,51.289967,11.902683,,
Braunschweig Hbf,33222,456478,52.252216,10.540295,,
"Braunschweig, Bhf. Gliesmarode",,633643,52.27731,10.549958,1,
"Braunschweig, Hauptbahnhof",,33222,52.252644,10.539547,1,
Braunschweig-Gliesmarode,633643,238439,52.275723,10.551499,,
"Braunsdorf, Bf Braunsdorf-Lichtenwalde",,656044,50.879227,13.011531,1,
"Braunsdorf, Bf Braunsdorf-Lichtenwalde",656044,508254,50.87981,13.011908,,
Brechen-Niederbrechen Bahnhof,,590991,50.359524,8.160377,1,
Brechen-Oberbrechen Bahnhof,,371378,50.354485,8.188597,1,
Breclav,,378716,48.7539,16.893236,1,
Breclav,378716,613700,48.7539,16.893236,,
Breclav(Gr),,340051,48.71265,16.86837,1,
Breclav(Gr),340051,130738,48.71265,16.86837,,
"Bredelar, Bahnhof",,554016,51.41917,8.776567,1,
Bredenbek,,275577,54.31504,9.86694,1,
Bredenbek,275577,278326,54.31504,9.86694,,
Bredstedt,,491168,54.621056,8.970478,1,
Bredstedt,491168,84591,54.621082,8.970362,,
Bregenz,,537816,47.503002,9.739627,1,
Bregenz,537816,423355,47.503002,9.739627,,
Bregenz Hafen,,299697,47.50612,9.748294,1,
Bregenz Hafen,299697,607646,47.50612,9.748294,,
Bregenz Riedenburg,,318136,47.49291,9.721313,1,
Bregenz Riedenburg,318136,268205,47.49291,9.721313,,
Brehna,,322748,51.554382,12.221754,1,
Brehna,322748,27550,51.554382,12.221754,,
Breisach,355151,299768,48.026917,7.58935,,
Breisach Bahnhof,,355151,48.02715,7.589839,1,
Breitenbrunn (Schwab),,94941,48.138588,10.40851,1,
Breitenbrunn(Erzg),325005,95269,50.47708,12.746053,,
Breitenbrunn(Schwab),94941,368168,48.138584,10.408505,,
"Breitenbrunn, Bahnhof",,325005,50.477516,12.745666,1,
Breitendiel,,131880,49.69138,9.225051,1,
Breitendiel,131880,582074,49.691383,9.225052,,
Breitendorf,673513,95362,51.138653,14.622726,,
Breitendorf Bahnhof,,673513,51.138798,14.622444,1,
Breitengüßbach,,555254,49.966827,10.887141,1,
Breitengüßbach,555254,611950,49.96683,10.887135,,
Breitenschützing,,370712,48.078785,13.800888,1,
Breitenschützing,370712,191886,48.078785,13.800888,,
Breitscheidt Bf,,118007,50.74843,7.661471,1,
"Breitscheidt(Altenkirchen, Ww)",118007,360080,50.748436,7.661486,,
Breitungen (Werra),,579128,50.752567,10.322635,1,
Breitungen(Werra),579128,25232,50.752655,10.322706,,
Bremen Hbf,,655965,53.083256,8.813857,1,
Bremen Hbf,655965,178103,53.0835,8.81418,,
Bremen Hbf,655965,262975,53.082993,8.813512,,
Bremen Hbf,655965,286325,53.082947,8.813447,,
Bremen Hbf,655965,322094,53.083073,8.813611,,
Bremen Hbf,655965,341869,53.08342,8.814067,,
Bremen Hbf,655965,38228,53.083565,8.81426,,
Bremen Hbf,655965,474769,53.083275,8.813879,,
Bremen Hbf,655965,476969,53.08319,8.813774,,
Bremen Hbf,655965,70123,53.083355,8.813982,,
Bremen Klinikum Bremen-Nord/Beckedorf,,110023,53.18527,8.595149,1,
Bremen Kreinsloger,,18111,53.18878,8.557861,1,
Bremen Kreinsloger,18111,310841,53.18878,8.557861,,
Bremen Mahndorf,,358794,53.039753,8.944571,1,
Bremen Mühlenstraße,,659453,53.185226,8.571304,1,
Bremen Mühlenstraße,659453,511479,53.185226,8.571304,,
Bremen Neustadt,,274960,53.075985,8.785956,1,
Bremen Neustadt,274960,176262,53.07597,8.786023,,
Bremen Turnerstraße,,478064,53.19324,8.54536,1,
Bremen Turnerstraße,478064,632608,53.193268,8.545422,,
Bremen-Aumund,,2548,53.185143,8.617636,1,
Bremen-Aumund,2548,539182,53.185123,8.617613,,
Bremen-Blumenthal,,295334,53.18365,8.581215,1,
Bremen-Blumenthal,295334,563956,53.18365,8.581215,,
Bremen-Burg,647394,237684,53.16056,8.704497,,
Bremen-Burg,647394,57272,53.16058,8.70472,,
Bremen-Burg,647394,67737,53.16059,8.70485,,
Bremen-Burg,647394,74868,53.16057,8.704635,,
Bremen-Burg(Bahn),,647394,53.160603,8.704685,1,
Bremen-Farge,,471752,53.205177,8.516527,1,
Bremen-Farge,471752,632307,53.205177,8.516527,,
Bremen-Hemelingen,,225802,53.054443,8.886838,1,
Bremen-Hemelingen,225802,411874,53.054455,8.886872,,
Bremen-Lesum,,459398,53.170715,8.686069,1,
Bremen-Lesum,459398,253221,53.17068,8.686992,,
Bremen-Mahndorf,358794,341462,53.039803,8.944543,,
Bremen-Mahndorf,358794,550366,53.039703,8.944599,,
Bremen-Oberneuland,,253397,53.087166,8.937923,1,
Bremen-Oberneuland,253397,264535,53.086697,8.93998,,
Bremen-Oslebshausen,,628348,53.135307,8.741025,1,
Bremen-Oslebshausen,628348,251602,53.135273,8.741011,,
Bremen-Schönebeck,,13340,53.172783,8.649134,1,
Bremen-Schönebeck,13340,36643,53.17274,8.650575,,
Bremen-Sebaldsbrück,679671,212634,53.061253,8.887667,,
Bremen-Sebaldsbrück,679671,576766,53.061203,8.887584,,
Bremen-Sebaldsbrück (Zug),,679671,53.061226,8.887626,1,
Bremen-St Magnus,672310,196551,53.17161,8.66969,,
Bremen-St. Magnus,,672310,53.171574,8.669685,1,
Bremen-Vegesack,,454212,53.16982,8.629981,1,
Bremen-Vegesack,454212,73486,53.169796,8.630008,,
Bremen-Walle,,234828,53.103905,8.786171,1,
Bremen-Walle,234828,379540,53.103886,8.786104,,
Bremerhaven Hbf,,230478,53.534943,8.599577,1,
Bremerhaven Hbf,230478,448422,53.53494,8.599521,,
Bremerhaven-Lehe,,34650,53.566525,8.600769,1,
Bremerhaven-Lehe,34650,214830,53.566525,8.600853,,
Bremerhaven-Lehe,34650,92165,53.566525,8.600685,,
Bremerhaven-Wulsdorf,,261009,53.50881,8.61173,1,
Bremerhaven-Wulsdorf,261009,24872,53.508766,8.611898,,
Bremervörde,,518279,53.483185,9.139755,1,
Bremervörde,518279,624515,53.483135,9.139716,,
Brennero/Brenner,,516331,47.002342,11.505426,1,
Brennero/Brenner,516331,225087,47.002342,11.505426,,
Brennet Bahnhof,,676982,47.58084,7.910573,1,
Bressanone/Brixen,,492732,46.709896,11.649764,1,
Bressanone/Brixen,492732,452980,46.709896,11.649764,,
Bressoux,,456012,50.644505,5.612652,1,
Bressoux,456012,620126,50.644505,5.612652,,
"Brest, Brest-Aspe",,213986,53.46052,9.383137,1,
Brest-Aspe,213986,598819,53.46059,9.382339,,
Breternitz,,427731,50.61628,11.405883,1,
Breternitz,427731,590098,50.61631,11.405863,,
Bretleben,,183379,51.340748,11.240842,1,
Bretleben,183379,528093,51.340744,11.240839,,
Bretten,,127841,49.037178,8.693275,1,
Bretten,127841,247726,49.0369,8.693448,,
Bretten Kupferhälde,,601653,49.037106,8.723648,1,
Bretten Kupferhälde,601653,119708,49.036987,8.723679,,
Bretten Rechberg,,86281,49.03301,8.701513,1,
Bretten Rechberg,86281,565786,49.032597,8.701614,,
Bretten Schulzentrum,,76281,49.031883,8.718428,1,
Bretten Schulzentrum,76281,587066,49.03177,8.718231,,
Bretten Stadtmitte,,373943,49.033897,8.702968,1,
Bretten Stadtmitte,373943,363351,49.033993,8.702809,,
Bretten Wannenweg,,129049,49.03038,8.709328,1,
Bretten Wannenweg,129049,484028,49.030464,8.709122,,
Bretten-Rinklingen,,282155,49.03669,8.673683,1,
Bretten-Ruit,,356985,49.00941,8.722075,1,
Bretten-Ruit,356985,58526,49.00946,8.722058,,
Brettorf,,346504,52.967113,8.447039,1,
Brettorf,346504,37524,52.967113,8.447039,,
"Bretzenheim (Nahe), Bahnhof",,630829,49.874233,7.898257,1,
Bretzenheim(Nahe),630829,151790,49.874588,7.898692,,
Bretzfeld,,502277,49.172916,9.440476,1,
Bretzfeld,502277,442300,49.17274,9.440302,,
Breyell,107795,521357,51.294617,6.241174,,
Brezina n.Jizerou,,294180,50.545635,15.036109,1,
Brezina n.Jizerou,294180,582360,50.545635,15.036109,,
Breziny u Decina,,585069,50.761,14.243957,1,
Breziny u Decina,585069,405588,50.761,14.243957,,
Brezno u Mlada Boleslavi,,433043,50.413685,15.005342,1,
Brezno u Mlada Boleslavi,433043,664491,50.413597,15.00553,,
"Briesen (Mark), Bahnhof",,125771,52.346497,14.281342,1,
Briesen(Mark),125771,553796,52.34649,14.28143,,2
Briesen(Mark),125771,624330,52.346424,14.281397,,1
"Brieskow-Finkenheerd, Finkenheerd Bhf",,356644,52.249264,14.5687,1,
"Brieskow-Finkenheerd, Kraftwerk Finkenheerd Bhf",,289721,52.263268,14.575663,1,
Brigachtal Kirchdorf,,630547,48.014347,8.467825,1,
Brigachtal Kirchdorf,630547,197314,48.014343,8.467807,,
Brigachtal Klengen,,469632,48.00738,8.465813,1,
Brigachtal Klengen,469632,237302,48.007366,8.465779,,
Brilon Wald,361143,230546,51.34916,8.576073,,
"Brilon Wald, Bahnhof",,361143,51.34916,8.576072,1,
Brilon-Hoppecke,385095,641408,51.37806,8.640059,,
"Brilon-Stadt, Bahnhof",,438570,51.399063,8.575291,1,
"Brilon-Stadt, Bahnhof",438570,458341,51.39905,8.5753,,
Britz,388059,172553,52.87269,13.820199,,1
Britz,388059,378988,52.87274,13.820118,,2
"Britz, Bahnhof",,388059,52.872932,13.820549,1,
Brniste,,491702,50.71651,14.728409,1,
Brniste,491702,544674,50.71656,14.72875,,
Brno hl.n.,,213572,49.19054,16.612774,1,
Brno hl.n.,213572,581834,49.19054,16.612774,,
Brocken,,267214,51.799824,10.618132,1,
Brocken,267214,388054,51.799557,10.618559,,
Brockhöfe,,512607,53.002136,10.258539,1,
Brockhöfe,512607,87744,53.002136,10.258539,,
Broderstorf,265797,372897,54.078915,12.262763,,
Broderstorf Bahnhof,,265797,54.07915,12.263279,1,
Brohl,12268,411833,50.48143,7.332639,,
Brohl(Brohltalbahn),12268,88897,50.480873,7.332053,,
Brohl-Lützing Brohl Bf,,12268,50.481426,7.332642,1,
"Broistedt, Bahnhof",,13334,52.196842,10.319999,1,
Brokstedt,,646769,53.990242,9.824099,1,
Brokstedt,646769,612853,53.990265,9.824056,,
Brokstedt,646769,659098,53.990215,9.824142,,
Brombach/Hauingen (Lörrach) Ba,,199385,47.63767,7.69549,1,
"Bronnbach, Bahnhof",,98434,49.714947,9.543567,1,
Bruchenbrücken,561522,160871,50.30218,8.788489,,
Bruchhausen (b. Ettlingen),,421427,48.924004,8.373942,1,
Bruchhausen(b Ettlingen),421427,52160,48.923992,8.373975,,
Bruchköbel,556215,30909,50.186188,8.919293,,
Bruchköbel Bahnhof,,556215,50.186398,8.91946,1,
Bruchmühlbach-Miesau,347234,562272,49.38534,7.443979,,
"Bruchmühlbach-Miesau, Bahnhof",,347234,49.385143,7.443665,1,
Bruchmühlen,,465844,52.204414,8.449097,1,
Bruchmühlen,465844,340134,52.20447,8.449148,,
Bruchmühlen,465844,627331,52.204357,8.449046,,
Bruchsal,,403178,49.124924,8.590347,1,
Bruchsal,403178,527531,49.124622,8.589649,,
Bruchsal Am Mantel,,645150,49.141193,8.563271,1,
Bruchsal Am Mantel,645150,92798,49.141182,8.56327,,
Bruchsal Bildungszentrum,294994,54208,49.110348,8.574507,,
Bruchsal Gew. Bildungszentrum,,294994,49.110394,8.574563,1,
Bruchsal Schlachthof,,418100,49.11892,8.609687,1,
Bruchsal Schlachthof,418100,393455,49.118927,8.609716,,
Bruchsal Schlossgarten,,455870,49.13139,8.594092,1,
Bruchsal Schloßgarten,455870,128244,49.13144,8.59406,,
Bruchsal Sportzentrum,,620184,49.135532,8.589655,1,
Bruchsal Sportzentrum,620184,80685,49.135445,8.589941,,
Bruchsal Stegwiesen,,58662,49.13645,8.598189,1,
Bruchsal Stegwiesen,58662,629188,49.136436,8.598199,,
Bruchsal Tunnelstraße,,138847,49.119717,8.594694,1,
Bruchsal Tunnelstraße,138847,474090,49.11955,8.594378,,
Bruck/Mur,,228903,47.41388,15.279491,1,
Bruck/Mur,228903,632712,47.41388,15.279491,,
Bruckberg,,115917,48.51598,11.997782,1,
Bruckberg,115917,296207,48.51598,11.997782,,
Bruckmühl,,570015,47.881172,11.91485,1,
Bruckmühl,570015,123564,47.88082,11.915531,,
Brugg AG,,327584,47.48086,8.208845,1,
Brugg AG,327584,486420,47.48086,8.208845,,
Brunau-Packebusch,,381108,52.751274,11.484586,1,
Brunau-Packebusch,381108,167452,52.751274,11.484586,,
Brunnen (Oberbay),,273725,48.629158,11.298102,1,
Brunnen(Oberbay),273725,313368,48.629158,11.2981,,
Bruxelles Midi,,207764,50.835377,4.335694,1,
Bruxelles Midi,207764,513772,50.835377,4.335694,,
Bruxelles-Nord,,570491,50.860237,4.361454,1,
Bruxelles-Nord,570491,205453,50.860237,4.361454,,
Bräunlingen Bahnhof,,53633,47.931774,8.457342,1,
Bräunlingen Bahnhof,53633,479031,47.931873,8.457104,,
Bräunlingen Industriegebiet,,383557,47.928314,8.470871,1,
Bräunlingen Industriegebiet,383557,38744,47.928337,8.470812,,
Brötzingen Mitte,,519678,48.889496,8.667117,1,
Brötzingen Mitte,519678,332958,48.889465,8.667027,,
Brötzingen Sandweg,,326659,48.88591,8.662625,1,
Brötzingen Sandweg,326659,437133,48.88588,8.662347,,
Brötzingen Wohnlichstraße,648395,584269,48.87946,8.653965,,
Brötzingen Wohnlichstraße (Bus),,648395,48.8795,8.654163,1,
Brück(Mark),541367,274182,52.18701,12.75893,,2
Brück(Mark),541367,495480,52.186836,12.758456,,1
"Brück, Bahnhof",,541367,52.187138,12.758332,1,
Brügge(Prign),541925,127434,53.256023,12.228819,,1
"Brügge, Bahnhof",,541925,53.256737,12.229043,1,
Brühl,327898,451903,50.82865,6.913105,,
Brühl Bf,,327898,50.829247,6.912716,1,
Brühl Kierberg Bf,,480929,50.8382,6.888362,1,
Brühl-Kierberg,480929,651966,50.838196,6.888375,,
Bubach,,267178,49.411022,6.948217,1,
Bubach,267178,46070,49.411022,6.94821,,
Bubenreuth,,417457,49.629543,11.011998,1,
Bubenreuth,417457,222586,49.629543,11.011994,,
Buchbrunn-Mainstockheim,,76105,49.763283,10.145178,1,
Buchbrunn-Mainstockheim,76105,141804,49.763283,10.145179,,
Buchen Ost,586492,159430,49.519154,9.332137,,
Buchen(Odenw),553286,263455,49.52353,9.327179,,
"Buchen, Bahnhof",,553286,49.523567,9.327163,1,
"Buchen, Bahnhof Ost",,586492,49.51915,9.332094,1,
Buchenau,,7106,48.161476,11.225509,1,
Buchenau(Lahn),98607,590726,50.87061,8.601115,,
Buchenau(Oberbay),7106,379011,48.16028,11.224497,,
Buchenhain,,105028,48.031532,11.497798,1,
Buchenhain,105028,673998,48.031254,11.497442,,
Buchenhorst,207735,235205,54.268238,12.711533,,
Buchenhorst Bahnhof,,207735,54.268257,12.711539,1,
Buchholz (Brsg) Bahnhof,,191975,48.083515,7.915514,1,
